{
  "meta": {
    "generated_at": "2026-06-11T17:16:16.224Z",
    "source": "SimpleMaps uscities.csv (https://simplemaps.com/data/us-cities)",
    "top_n_per_state": 50,
    "total_rows": 2276
  },
  "places": [
    {
      "slug": "anchorage-ak",
      "city": "Anchorage",
      "state_abbr": "AK",
      "state": "Alaska",
      "lat": 61.1508,
      "lon": -149.1091,
      "population": 298192,
      "county": "Anchorage",
      "county_fips": "02020",
      "primary_zip": "99518",
      "source": "population"
    },
    {
      "slug": "fairbanks-ak",
      "city": "Fairbanks",
      "state_abbr": "AK",
      "state": "Alaska",
      "lat": 64.8353,
      "lon": -147.6533,
      "population": 32751,
      "county": "Fairbanks North Star",
      "county_fips": "02090",
      "primary_zip": "99701",
      "source": "population"
    },
    {
      "slug": "juneau-ak",
      "city": "Juneau",
      "state_abbr": "AK",
      "state": "Alaska",
      "lat": 58.4566,
      "lon": -134.1776,
      "population": 32468,
      "county": "Juneau",
      "county_fips": "02110",
      "primary_zip": "99824",
      "source": "population"
    },
    {
      "slug": "wasilla-ak",
      "city": "Wasilla",
      "state_abbr": "AK",
      "state": "Alaska",
      "lat": 61.5769,
      "lon": -149.4668,
      "population": 9748,
      "county": "Matanuska-Susitna",
      "county_fips": "02170",
      "primary_zip": "99654",
      "source": "population"
    },
    {
      "slug": "sitka-ak",
      "city": "Sitka",
      "state_abbr": "AK",
      "state": "Alaska",
      "lat": 57.2405,
      "lon": -135.3152,
      "population": 8830,
      "county": "Sitka",
      "county_fips": "02220",
      "primary_zip": "99835",
      "source": "population"
    },
    {
      "slug": "ketchikan-ak",
      "city": "Ketchikan",
      "state_abbr": "AK",
      "state": "Alaska",
      "lat": 55.3567,
      "lon": -131.6712,
      "population": 8208,
      "county": "Ketchikan Gateway",
      "county_fips": "02130",
      "primary_zip": "99901",
      "source": "population"
    },
    {
      "slug": "kenai-ak",
      "city": "Kenai",
      "state_abbr": "AK",
      "state": "Alaska",
      "lat": 60.5614,
      "lon": -151.1976,
      "population": 7745,
      "county": "Kenai Peninsula",
      "county_fips": "02122",
      "primary_zip": "99611",
      "source": "population"
    },
    {
      "slug": "palmer-ak",
      "city": "Palmer",
      "state_abbr": "AK",
      "state": "Alaska",
      "lat": 61.5974,
      "lon": -149.1147,
      "population": 7000,
      "county": "Matanuska-Susitna",
      "county_fips": "02170",
      "primary_zip": "99645",
      "source": "population"
    },
    {
      "slug": "bethel-ak",
      "city": "Bethel",
      "state_abbr": "AK",
      "state": "Alaska",
      "lat": 60.7905,
      "lon": -161.7927,
      "population": 6378,
      "county": "Bethel",
      "county_fips": "02050",
      "primary_zip": "99559",
      "source": "population"
    },
    {
      "slug": "kodiak-ak",
      "city": "Kodiak",
      "state_abbr": "AK",
      "state": "Alaska",
      "lat": 57.7933,
      "lon": -152.4029,
      "population": 6191,
      "county": "Kodiak Island",
      "county_fips": "02150",
      "primary_zip": "99615",
      "source": "population"
    },
    {
      "slug": "homer-ak",
      "city": "Homer",
      "state_abbr": "AK",
      "state": "Alaska",
      "lat": 59.653,
      "lon": -151.5256,
      "population": 5631,
      "county": "Kenai Peninsula",
      "county_fips": "02122",
      "primary_zip": "99603",
      "source": "population"
    },
    {
      "slug": "soldotna-ak",
      "city": "Soldotna",
      "state_abbr": "AK",
      "state": "Alaska",
      "lat": 60.4863,
      "lon": -151.0676,
      "population": 4617,
      "county": "Kenai Peninsula",
      "county_fips": "02122",
      "primary_zip": "99669",
      "source": "population"
    },
    {
      "slug": "unalaska-ak",
      "city": "Unalaska",
      "state_abbr": "AK",
      "state": "Alaska",
      "lat": 53.8952,
      "lon": -166.5745,
      "population": 4437,
      "county": "Aleutians West",
      "county_fips": "02016",
      "primary_zip": "99692",
      "source": "population"
    },
    {
      "slug": "utqiag-vik-ak",
      "city": "Utqiaġvik",
      "state_abbr": "AK",
      "state": "Alaska",
      "lat": 71.2727,
      "lon": -156.7576,
      "population": 4335,
      "county": "North Slope",
      "county_fips": "02185",
      "primary_zip": "99723",
      "source": "population"
    },
    {
      "slug": "valdez-ak",
      "city": "Valdez",
      "state_abbr": "AK",
      "state": "Alaska",
      "lat": 61.0961,
      "lon": -146.2614,
      "population": 3862,
      "county": "Valdez-Cordova",
      "county_fips": "02261",
      "primary_zip": "99686",
      "source": "population"
    },
    {
      "slug": "nome-ak",
      "city": "Nome",
      "state_abbr": "AK",
      "state": "Alaska",
      "lat": 64.5214,
      "lon": -165.4062,
      "population": 3797,
      "county": "Nome",
      "county_fips": "02180",
      "primary_zip": "99762",
      "source": "population"
    },
    {
      "slug": "kotzebue-ak",
      "city": "Kotzebue",
      "state_abbr": "AK",
      "state": "Alaska",
      "lat": 66.8714,
      "lon": -162.5234,
      "population": 3245,
      "county": "Northwest Arctic",
      "county_fips": "02188",
      "primary_zip": "99752",
      "source": "population"
    },
    {
      "slug": "seward-ak",
      "city": "Seward",
      "state_abbr": "AK",
      "state": "Alaska",
      "lat": 60.1135,
      "lon": -149.3918,
      "population": 2787,
      "county": "Kenai Peninsula",
      "county_fips": "02122",
      "primary_zip": "99664",
      "source": "population"
    },
    {
      "slug": "dillingham-ak",
      "city": "Dillingham",
      "state_abbr": "AK",
      "state": "Alaska",
      "lat": 59.0549,
      "lon": -158.5376,
      "population": 2364,
      "county": "Dillingham",
      "county_fips": "02070",
      "primary_zip": "99576",
      "source": "population"
    },
    {
      "slug": "houston-ak",
      "city": "Houston",
      "state_abbr": "AK",
      "state": "Alaska",
      "lat": 61.6183,
      "lon": -149.7927,
      "population": 2290,
      "county": "Matanuska-Susitna",
      "county_fips": "02170",
      "primary_zip": "99694",
      "source": "population"
    },
    {
      "slug": "north-pole-ak",
      "city": "North Pole",
      "state_abbr": "AK",
      "state": "Alaska",
      "lat": 64.7532,
      "lon": -147.3611,
      "population": 2232,
      "county": "Fairbanks North Star",
      "county_fips": "02090",
      "primary_zip": "99705",
      "source": "population"
    },
    {
      "slug": "cordova-ak",
      "city": "Cordova",
      "state_abbr": "AK",
      "state": "Alaska",
      "lat": 60.5361,
      "lon": -145.6131,
      "population": 2205,
      "county": "Valdez-Cordova",
      "county_fips": "02261",
      "primary_zip": "99574",
      "source": "population"
    },
    {
      "slug": "craig-ak",
      "city": "Craig",
      "state_abbr": "AK",
      "state": "Alaska",
      "lat": 55.4924,
      "lon": -133.1146,
      "population": 1231,
      "county": "Prince of Wales-Hyder",
      "county_fips": "02198",
      "primary_zip": "99921",
      "source": "population"
    },
    {
      "slug": "hooper-bay-ak",
      "city": "Hooper Bay",
      "state_abbr": "AK",
      "state": "Alaska",
      "lat": 61.5279,
      "lon": -166.1112,
      "population": 1180,
      "county": "Kusilvak",
      "county_fips": "02158",
      "primary_zip": "99604",
      "source": "population"
    },
    {
      "slug": "chevak-ak",
      "city": "Chevak",
      "state_abbr": "AK",
      "state": "Alaska",
      "lat": 61.529,
      "lon": -165.5904,
      "population": 1049,
      "county": "Kusilvak",
      "county_fips": "02158",
      "primary_zip": "99563",
      "source": "population"
    },
    {
      "slug": "sand-point-ak",
      "city": "Sand Point",
      "state_abbr": "AK",
      "state": "Alaska",
      "lat": 55.3229,
      "lon": -160.4843,
      "population": 1044,
      "county": "Aleutians East",
      "county_fips": "02013",
      "primary_zip": "99661",
      "source": "population"
    },
    {
      "slug": "akutan-ak",
      "city": "Akutan",
      "state_abbr": "AK",
      "state": "Alaska",
      "lat": 54.1594,
      "lon": -165.7328,
      "population": 1036,
      "county": "Aleutians East",
      "county_fips": "02013",
      "primary_zip": "99553",
      "source": "population"
    },
    {
      "slug": "king-cove-ak",
      "city": "King Cove",
      "state_abbr": "AK",
      "state": "Alaska",
      "lat": 55.0884,
      "lon": -162.2963,
      "population": 989,
      "county": "Aleutians East",
      "county_fips": "02013",
      "primary_zip": "99612",
      "source": "population"
    },
    {
      "slug": "delta-junction-ak",
      "city": "Delta Junction",
      "state_abbr": "AK",
      "state": "Alaska",
      "lat": 64.0603,
      "lon": -145.6936,
      "population": 934,
      "county": "Southeast Fairbanks",
      "county_fips": "02240",
      "primary_zip": "99737",
      "source": "population"
    },
    {
      "slug": "togiak-ak",
      "city": "Togiak",
      "state_abbr": "AK",
      "state": "Alaska",
      "lat": 59.0685,
      "lon": -160.4762,
      "population": 855,
      "county": "Dillingham",
      "county_fips": "02070",
      "primary_zip": "99678",
      "source": "population"
    },
    {
      "slug": "mountain-village-ak",
      "city": "Mountain Village",
      "state_abbr": "AK",
      "state": "Alaska",
      "lat": 62.0945,
      "lon": -163.7152,
      "population": 851,
      "county": "Kusilvak",
      "county_fips": "02158",
      "primary_zip": "99632",
      "source": "population"
    },
    {
      "slug": "selawik-ak",
      "city": "Selawik",
      "state_abbr": "AK",
      "state": "Alaska",
      "lat": 66.5983,
      "lon": -160.0066,
      "population": 849,
      "county": "Northwest Arctic",
      "county_fips": "02188",
      "primary_zip": "99770",
      "source": "population"
    },
    {
      "slug": "emmonak-ak",
      "city": "Emmonak",
      "state_abbr": "AK",
      "state": "Alaska",
      "lat": 62.7797,
      "lon": -164.5349,
      "population": 804,
      "county": "Kusilvak",
      "county_fips": "02158",
      "primary_zip": "99581",
      "source": "population"
    },
    {
      "slug": "klawock-ak",
      "city": "Klawock",
      "state_abbr": "AK",
      "state": "Alaska",
      "lat": 55.5552,
      "lon": -133.0866,
      "population": 796,
      "county": "Prince of Wales-Hyder",
      "county_fips": "02198",
      "primary_zip": "99925",
      "source": "population"
    },
    {
      "slug": "kwethluk-ak",
      "city": "Kwethluk",
      "state_abbr": "AK",
      "state": "Alaska",
      "lat": 60.7974,
      "lon": -161.4125,
      "population": 753,
      "county": "Bethel",
      "county_fips": "02050",
      "primary_zip": "99621",
      "source": "population"
    },
    {
      "slug": "alakanuk-ak",
      "city": "Alakanuk",
      "state_abbr": "AK",
      "state": "Alaska",
      "lat": 62.6893,
      "lon": -164.6303,
      "population": 750,
      "county": "Kusilvak",
      "county_fips": "02158",
      "primary_zip": "99554",
      "source": "population"
    },
    {
      "slug": "hoonah-ak",
      "city": "Hoonah",
      "state_abbr": "AK",
      "state": "Alaska",
      "lat": 58.112,
      "lon": -135.425,
      "population": 745,
      "county": "Hoonah-Angoon",
      "county_fips": "02105",
      "primary_zip": "99829",
      "source": "population"
    },
    {
      "slug": "unalakleet-ak",
      "city": "Unalakleet",
      "state_abbr": "AK",
      "state": "Alaska",
      "lat": 63.8961,
      "lon": -160.7873,
      "population": 708,
      "county": "Nome",
      "county_fips": "02180",
      "primary_zip": "99684",
      "source": "population"
    },
    {
      "slug": "savoonga-ak",
      "city": "Savoonga",
      "state_abbr": "AK",
      "state": "Alaska",
      "lat": 63.6803,
      "lon": -170.4825,
      "population": 705,
      "county": "Nome",
      "county_fips": "02180",
      "primary_zip": "99769",
      "source": "population"
    },
    {
      "slug": "gambell-ak",
      "city": "Gambell",
      "state_abbr": "AK",
      "state": "Alaska",
      "lat": 63.7523,
      "lon": -171.6881,
      "population": 701,
      "county": "Nome",
      "county_fips": "02180",
      "primary_zip": "99742",
      "source": "population"
    },
    {
      "slug": "quinhagak-ak",
      "city": "Quinhagak",
      "state_abbr": "AK",
      "state": "Alaska",
      "lat": 59.751,
      "lon": -161.9001,
      "population": 699,
      "county": "Bethel",
      "county_fips": "02050",
      "primary_zip": "99655",
      "source": "population"
    },
    {
      "slug": "point-hope-ak",
      "city": "Point Hope",
      "state_abbr": "AK",
      "state": "Alaska",
      "lat": 68.3441,
      "lon": -166.6773,
      "population": 692,
      "county": "North Slope",
      "county_fips": "02185",
      "primary_zip": "99766",
      "source": "population"
    },
    {
      "slug": "noorvik-ak",
      "city": "Noorvik",
      "state_abbr": "AK",
      "state": "Alaska",
      "lat": 66.8293,
      "lon": -161.0354,
      "population": 686,
      "county": "Northwest Arctic",
      "county_fips": "02188",
      "primary_zip": "99763",
      "source": "population"
    },
    {
      "slug": "toksook-bay-ak",
      "city": "Toksook Bay",
      "state_abbr": "AK",
      "state": "Alaska",
      "lat": 60.5354,
      "lon": -165.1385,
      "population": 657,
      "county": "Bethel",
      "county_fips": "02050",
      "primary_zip": "99637",
      "source": "population"
    },
    {
      "slug": "kotlik-ak",
      "city": "Kotlik",
      "state_abbr": "AK",
      "state": "Alaska",
      "lat": 63.0302,
      "lon": -163.5575,
      "population": 620,
      "county": "Kusilvak",
      "county_fips": "02158",
      "primary_zip": "99620",
      "source": "population"
    },
    {
      "slug": "shishmaref-ak",
      "city": "Shishmaref",
      "state_abbr": "AK",
      "state": "Alaska",
      "lat": 66.2372,
      "lon": -166.1027,
      "population": 614,
      "county": "Nome",
      "county_fips": "02180",
      "primary_zip": "99772",
      "source": "population"
    },
    {
      "slug": "pilot-station-ak",
      "city": "Pilot Station",
      "state_abbr": "AK",
      "state": "Alaska",
      "lat": 61.9409,
      "lon": -162.8829,
      "population": 607,
      "county": "Kusilvak",
      "county_fips": "02158",
      "primary_zip": "99650",
      "source": "population"
    },
    {
      "slug": "wainwright-ak",
      "city": "Wainwright",
      "state_abbr": "AK",
      "state": "Alaska",
      "lat": 70.6406,
      "lon": -159.9307,
      "population": 573,
      "county": "North Slope",
      "county_fips": "02185",
      "primary_zip": "99782",
      "source": "population"
    },
    {
      "slug": "stebbins-ak",
      "city": "Stebbins",
      "state_abbr": "AK",
      "state": "Alaska",
      "lat": 63.4685,
      "lon": -162.2587,
      "population": 572,
      "county": "Nome",
      "county_fips": "02180",
      "primary_zip": "99671",
      "source": "population"
    },
    {
      "slug": "kake-ak",
      "city": "Kake",
      "state_abbr": "AK",
      "state": "Alaska",
      "lat": 56.9758,
      "lon": -133.9158,
      "population": 563,
      "county": "Prince of Wales-Hyder",
      "county_fips": "02198",
      "primary_zip": "99830",
      "source": "population"
    },
    {
      "slug": "hoover-al",
      "city": "Hoover",
      "state_abbr": "AL",
      "state": "Alabama",
      "lat": 33.3761,
      "lon": -86.8065,
      "population": 84978,
      "county": "Jefferson",
      "county_fips": "01073",
      "primary_zip": "35216",
      "source": "population"
    },
    {
      "slug": "auburn-al",
      "city": "Auburn",
      "state_abbr": "AL",
      "state": "Alabama",
      "lat": 32.6084,
      "lon": -85.4897,
      "population": 63118,
      "county": "Lee",
      "county_fips": "01081",
      "primary_zip": "36849",
      "source": "population"
    },
    {
      "slug": "madison-al",
      "city": "Madison",
      "state_abbr": "AL",
      "state": "Alabama",
      "lat": 34.7113,
      "lon": -86.7617,
      "population": 47959,
      "county": "Madison",
      "county_fips": "01089",
      "primary_zip": "35756",
      "source": "population"
    },
    {
      "slug": "vestavia-hills-al",
      "city": "Vestavia Hills",
      "state_abbr": "AL",
      "state": "Alabama",
      "lat": 33.4516,
      "lon": -86.7443,
      "population": 34688,
      "county": "Jefferson",
      "county_fips": "01073",
      "primary_zip": "35216",
      "source": "population"
    },
    {
      "slug": "alabaster-al",
      "city": "Alabaster",
      "state_abbr": "AL",
      "state": "Alabama",
      "lat": 33.2197,
      "lon": -86.8233,
      "population": 32948,
      "county": "Shelby",
      "county_fips": "01117",
      "primary_zip": "35114",
      "source": "population"
    },
    {
      "slug": "bessemer-al",
      "city": "Bessemer",
      "state_abbr": "AL",
      "state": "Alabama",
      "lat": 33.3709,
      "lon": -86.9713,
      "population": 26511,
      "county": "Jefferson",
      "county_fips": "01073",
      "primary_zip": "35022",
      "source": "population"
    },
    {
      "slug": "homewood-al",
      "city": "Homewood",
      "state_abbr": "AL",
      "state": "Alabama",
      "lat": 33.4617,
      "lon": -86.8092,
      "population": 25613,
      "county": "Jefferson",
      "county_fips": "01073",
      "primary_zip": "35229",
      "source": "population"
    },
    {
      "slug": "northport-al",
      "city": "Northport",
      "state_abbr": "AL",
      "state": "Alabama",
      "lat": 33.2584,
      "lon": -87.5981,
      "population": 25045,
      "county": "Tuscaloosa",
      "county_fips": "01125",
      "primary_zip": "35473",
      "source": "population"
    },
    {
      "slug": "pelham-al",
      "city": "Pelham",
      "state_abbr": "AL",
      "state": "Alabama",
      "lat": 33.3117,
      "lon": -86.7569,
      "population": 23050,
      "county": "Shelby",
      "county_fips": "01117",
      "primary_zip": "35043",
      "source": "population"
    },
    {
      "slug": "prichard-al",
      "city": "Prichard",
      "state_abbr": "AL",
      "state": "Alabama",
      "lat": 30.7735,
      "lon": -88.1301,
      "population": 22185,
      "county": "Mobile",
      "county_fips": "01097",
      "primary_zip": "36616",
      "source": "population"
    },
    {
      "slug": "albertville-al",
      "city": "Albertville",
      "state_abbr": "AL",
      "state": "Alabama",
      "lat": 34.2631,
      "lon": -86.2106,
      "population": 21525,
      "county": "Marshall",
      "county_fips": "01095",
      "primary_zip": "35951",
      "source": "population"
    },
    {
      "slug": "trussville-al",
      "city": "Trussville",
      "state_abbr": "AL",
      "state": "Alabama",
      "lat": 33.6389,
      "lon": -86.5832,
      "population": 21422,
      "county": "Jefferson",
      "county_fips": "01073",
      "primary_zip": "35235",
      "source": "population"
    },
    {
      "slug": "oxford-al",
      "city": "Oxford",
      "state_abbr": "AL",
      "state": "Alabama",
      "lat": 33.5963,
      "lon": -85.8718,
      "population": 21120,
      "county": "Calhoun",
      "county_fips": "01015",
      "primary_zip": "36260",
      "source": "population"
    },
    {
      "slug": "mountain-brook-al",
      "city": "Mountain Brook",
      "state_abbr": "AL",
      "state": "Alabama",
      "lat": 33.4871,
      "lon": -86.7401,
      "population": 20590,
      "county": "Jefferson",
      "county_fips": "01073",
      "primary_zip": "35213",
      "source": "population"
    },
    {
      "slug": "helena-al",
      "city": "Helena",
      "state_abbr": "AL",
      "state": "Alabama",
      "lat": 33.2855,
      "lon": -86.8748,
      "population": 18673,
      "county": "Shelby",
      "county_fips": "01117",
      "primary_zip": "35022",
      "source": "population"
    },
    {
      "slug": "center-point-al",
      "city": "Center Point",
      "state_abbr": "AL",
      "state": "Alabama",
      "lat": 33.6447,
      "lon": -86.6851,
      "population": 16496,
      "county": "Jefferson",
      "county_fips": "01073",
      "primary_zip": "35215",
      "source": "population"
    },
    {
      "slug": "hueytown-al",
      "city": "Hueytown",
      "state_abbr": "AL",
      "state": "Alabama",
      "lat": 33.4237,
      "lon": -87.0223,
      "population": 15561,
      "county": "Jefferson",
      "county_fips": "01073",
      "primary_zip": "35023",
      "source": "population"
    },
    {
      "slug": "millbrook-al",
      "city": "Millbrook",
      "state_abbr": "AL",
      "state": "Alabama",
      "lat": 32.5033,
      "lon": -86.3729,
      "population": 15413,
      "county": "Elmore",
      "county_fips": "01051",
      "primary_zip": "36054",
      "source": "population"
    },
    {
      "slug": "alexander-city-al",
      "city": "Alexander City",
      "state_abbr": "AL",
      "state": "Alabama",
      "lat": 32.924,
      "lon": -85.9353,
      "population": 14773,
      "county": "Tallapoosa",
      "county_fips": "01123",
      "primary_zip": "35010",
      "source": "population"
    },
    {
      "slug": "hartselle-al",
      "city": "Hartselle",
      "state_abbr": "AL",
      "state": "Alabama",
      "lat": 34.4392,
      "lon": -86.9399,
      "population": 14471,
      "county": "Morgan",
      "county_fips": "01103",
      "primary_zip": "35640",
      "source": "population"
    },
    {
      "slug": "saraland-al",
      "city": "Saraland",
      "state_abbr": "AL",
      "state": "Alabama",
      "lat": 30.8439,
      "lon": -88.0954,
      "population": 13942,
      "county": "Mobile",
      "county_fips": "01097",
      "primary_zip": "36571",
      "source": "population"
    },
    {
      "slug": "muscle-shoals-al",
      "city": "Muscle Shoals",
      "state_abbr": "AL",
      "state": "Alabama",
      "lat": 34.7426,
      "lon": -87.6336,
      "population": 13831,
      "county": "Colbert",
      "county_fips": "01033",
      "primary_zip": "35661",
      "source": "population"
    },
    {
      "slug": "pell-city-al",
      "city": "Pell City",
      "state_abbr": "AL",
      "state": "Alabama",
      "lat": 33.5609,
      "lon": -86.2669,
      "population": 13794,
      "county": "St. Clair",
      "county_fips": "01115",
      "primary_zip": "35125",
      "source": "population"
    },
    {
      "slug": "calera-al",
      "city": "Calera",
      "state_abbr": "AL",
      "state": "Alabama",
      "lat": 33.1249,
      "lon": -86.745,
      "population": 13489,
      "county": "Shelby",
      "county_fips": "01117",
      "primary_zip": "35040",
      "source": "population"
    },
    {
      "slug": "moody-al",
      "city": "Moody",
      "state_abbr": "AL",
      "state": "Alabama",
      "lat": 33.5986,
      "lon": -86.4963,
      "population": 12823,
      "county": "St. Clair",
      "county_fips": "01115",
      "primary_zip": "35094",
      "source": "population"
    },
    {
      "slug": "sylacauga-al",
      "city": "Sylacauga",
      "state_abbr": "AL",
      "state": "Alabama",
      "lat": 33.1779,
      "lon": -86.2606,
      "population": 12540,
      "county": "Talladega",
      "county_fips": "01121",
      "primary_zip": "35151",
      "source": "population"
    },
    {
      "slug": "irondale-al",
      "city": "Irondale",
      "state_abbr": "AL",
      "state": "Alabama",
      "lat": 33.544,
      "lon": -86.6599,
      "population": 12359,
      "county": "Jefferson",
      "county_fips": "01073",
      "primary_zip": "35210",
      "source": "population"
    },
    {
      "slug": "chelsea-al",
      "city": "Chelsea",
      "state_abbr": "AL",
      "state": "Alabama",
      "lat": 33.3258,
      "lon": -86.6287,
      "population": 12341,
      "county": "Shelby",
      "county_fips": "01117",
      "primary_zip": "35051",
      "source": "population"
    },
    {
      "slug": "gulf-shores-al",
      "city": "Gulf Shores",
      "state_abbr": "AL",
      "state": "Alabama",
      "lat": 30.2718,
      "lon": -87.708,
      "population": 11689,
      "county": "Baldwin",
      "county_fips": "01003",
      "primary_zip": "36542",
      "source": "population"
    },
    {
      "slug": "pleasant-grove-al",
      "city": "Pleasant Grove",
      "state_abbr": "AL",
      "state": "Alabama",
      "lat": 33.4936,
      "lon": -86.9782,
      "population": 10177,
      "county": "Jefferson",
      "county_fips": "01073",
      "primary_zip": "35127",
      "source": "population"
    },
    {
      "slug": "atmore-al",
      "city": "Atmore",
      "state_abbr": "AL",
      "state": "Alabama",
      "lat": 31.0927,
      "lon": -87.4763,
      "population": 10022,
      "county": "Escambia",
      "county_fips": "01053",
      "primary_zip": "36502",
      "source": "population"
    },
    {
      "slug": "boaz-al",
      "city": "Boaz",
      "state_abbr": "AL",
      "state": "Alabama",
      "lat": 34.1985,
      "lon": -86.1529,
      "population": 9710,
      "county": "Marshall",
      "county_fips": "01095",
      "primary_zip": "35957",
      "source": "population"
    },
    {
      "slug": "clay-al",
      "city": "Clay",
      "state_abbr": "AL",
      "state": "Alabama",
      "lat": 33.698,
      "lon": -86.6068,
      "population": 9587,
      "county": "Jefferson",
      "county_fips": "01073",
      "primary_zip": "35173",
      "source": "population"
    },
    {
      "slug": "rainbow-city-al",
      "city": "Rainbow City",
      "state_abbr": "AL",
      "state": "Alabama",
      "lat": 33.9337,
      "lon": -86.0923,
      "population": 9531,
      "county": "Etowah",
      "county_fips": "01055",
      "primary_zip": "35906",
      "source": "population"
    },
    {
      "slug": "valley-al",
      "city": "Valley",
      "state_abbr": "AL",
      "state": "Alabama",
      "lat": 32.8088,
      "lon": -85.1771,
      "population": 9377,
      "county": "Chambers",
      "county_fips": "01017",
      "primary_zip": "36854",
      "source": "population"
    },
    {
      "slug": "sheffield-al",
      "city": "Sheffield",
      "state_abbr": "AL",
      "state": "Alabama",
      "lat": 34.7556,
      "lon": -87.7008,
      "population": 9025,
      "county": "Colbert",
      "county_fips": "01033",
      "primary_zip": "35660",
      "source": "population"
    },
    {
      "slug": "pike-road-al",
      "city": "Pike Road",
      "state_abbr": "AL",
      "state": "Alabama",
      "lat": 32.2909,
      "lon": -86.0917,
      "population": 8777,
      "county": "Montgomery",
      "county_fips": "01101",
      "primary_zip": "36064",
      "source": "population"
    },
    {
      "slug": "southside-al",
      "city": "Southside",
      "state_abbr": "AL",
      "state": "Alabama",
      "lat": 33.9007,
      "lon": -86.0237,
      "population": 8600,
      "county": "Etowah",
      "county_fips": "01055",
      "primary_zip": "35907",
      "source": "population"
    },
    {
      "slug": "arab-al",
      "city": "Arab",
      "state_abbr": "AL",
      "state": "Alabama",
      "lat": 34.3309,
      "lon": -86.499,
      "population": 8340,
      "county": "Marshall",
      "county_fips": "01095",
      "primary_zip": "35016",
      "source": "population"
    },
    {
      "slug": "spanish-fort-al",
      "city": "Spanish Fort",
      "state_abbr": "AL",
      "state": "Alabama",
      "lat": 30.7257,
      "lon": -87.8602,
      "population": 8327,
      "county": "Baldwin",
      "county_fips": "01003",
      "primary_zip": "36507",
      "source": "population"
    },
    {
      "slug": "pinson-al",
      "city": "Pinson",
      "state_abbr": "AL",
      "state": "Alabama",
      "lat": 33.7064,
      "lon": -86.6654,
      "population": 7426,
      "county": "Jefferson",
      "county_fips": "01073",
      "primary_zip": "35215",
      "source": "population"
    },
    {
      "slug": "demopolis-al",
      "city": "Demopolis",
      "state_abbr": "AL",
      "state": "Alabama",
      "lat": 32.498,
      "lon": -87.8298,
      "population": 7019,
      "county": "Marengo",
      "county_fips": "01091",
      "primary_zip": "36732",
      "source": "population"
    },
    {
      "slug": "montevallo-al",
      "city": "Montevallo",
      "state_abbr": "AL",
      "state": "Alabama",
      "lat": 33.1254,
      "lon": -86.848,
      "population": 6723,
      "county": "Shelby",
      "county_fips": "01117",
      "primary_zip": "35115",
      "source": "population"
    },
    {
      "slug": "opp-al",
      "city": "Opp",
      "state_abbr": "AL",
      "state": "Alabama",
      "lat": 31.2848,
      "lon": -86.257,
      "population": 6586,
      "county": "Covington",
      "county_fips": "01039",
      "primary_zip": "36467",
      "source": "population"
    },
    {
      "slug": "lincoln-al",
      "city": "Lincoln",
      "state_abbr": "AL",
      "state": "Alabama",
      "lat": 33.5935,
      "lon": -86.1372,
      "population": 6491,
      "county": "Talladega",
      "county_fips": "01121",
      "primary_zip": "35160",
      "source": "population"
    },
    {
      "slug": "lanett-al",
      "city": "Lanett",
      "state_abbr": "AL",
      "state": "Alabama",
      "lat": 32.8572,
      "lon": -85.2082,
      "population": 6393,
      "county": "Chambers",
      "county_fips": "01017",
      "primary_zip": "36863",
      "source": "population"
    },
    {
      "slug": "tarrant-al",
      "city": "Tarrant",
      "state_abbr": "AL",
      "state": "Alabama",
      "lat": 33.5941,
      "lon": -86.7684,
      "population": 6268,
      "county": "Jefferson",
      "county_fips": "01073",
      "primary_zip": "35217",
      "source": "population"
    },
    {
      "slug": "satsuma-al",
      "city": "Satsuma",
      "state_abbr": "AL",
      "state": "Alabama",
      "lat": 30.8579,
      "lon": -88.0634,
      "population": 6193,
      "county": "Mobile",
      "county_fips": "01097",
      "primary_zip": "36572",
      "source": "population"
    },
    {
      "slug": "robertsdale-al",
      "city": "Robertsdale",
      "state_abbr": "AL",
      "state": "Alabama",
      "lat": 30.5533,
      "lon": -87.706,
      "population": 5990,
      "county": "Baldwin",
      "county_fips": "01003",
      "primary_zip": "36567",
      "source": "population"
    },
    {
      "slug": "roanoke-al",
      "city": "Roanoke",
      "state_abbr": "AL",
      "state": "Alabama",
      "lat": 33.1453,
      "lon": -85.3694,
      "population": 5984,
      "county": "Randolph",
      "county_fips": "01111",
      "primary_zip": "36274",
      "source": "population"
    },
    {
      "slug": "little-rock-ar",
      "city": "Little Rock",
      "state_abbr": "AR",
      "state": "Arkansas",
      "lat": 34.7255,
      "lon": -92.3584,
      "population": 198541,
      "county": "Pulaski",
      "county_fips": "05119",
      "primary_zip": "72211",
      "source": "population"
    },
    {
      "slug": "fort-smith-ar",
      "city": "Fort Smith",
      "state_abbr": "AR",
      "state": "Arkansas",
      "lat": 35.3494,
      "lon": -94.3695,
      "population": 88133,
      "county": "Sebastian",
      "county_fips": "05131",
      "primary_zip": "72901",
      "source": "population"
    },
    {
      "slug": "fayetteville-ar",
      "city": "Fayetteville",
      "state_abbr": "AR",
      "state": "Arkansas",
      "lat": 36.0713,
      "lon": -94.166,
      "population": 83826,
      "county": "Washington",
      "county_fips": "05143",
      "primary_zip": "72704",
      "source": "population"
    },
    {
      "slug": "springdale-ar",
      "city": "Springdale",
      "state_abbr": "AR",
      "state": "Arkansas",
      "lat": 36.1897,
      "lon": -94.1574,
      "population": 78557,
      "county": "Washington",
      "county_fips": "05143",
      "primary_zip": "72764",
      "source": "population"
    },
    {
      "slug": "jonesboro-ar",
      "city": "Jonesboro",
      "state_abbr": "AR",
      "state": "Arkansas",
      "lat": 35.8211,
      "lon": -90.6793,
      "population": 74889,
      "county": "Craighead",
      "county_fips": "05031",
      "primary_zip": "72467",
      "source": "population"
    },
    {
      "slug": "north-little-rock-ar",
      "city": "North Little Rock",
      "state_abbr": "AR",
      "state": "Arkansas",
      "lat": 34.7813,
      "lon": -92.2378,
      "population": 66278,
      "county": "Pulaski",
      "county_fips": "05119",
      "primary_zip": "72113",
      "source": "population"
    },
    {
      "slug": "conway-ar",
      "city": "Conway",
      "state_abbr": "AR",
      "state": "Arkansas",
      "lat": 35.0754,
      "lon": -92.4696,
      "population": 65300,
      "county": "Faulkner",
      "county_fips": "05045",
      "primary_zip": "72032",
      "source": "population"
    },
    {
      "slug": "rogers-ar",
      "city": "Rogers",
      "state_abbr": "AR",
      "state": "Arkansas",
      "lat": 36.3172,
      "lon": -94.1515,
      "population": 65021,
      "county": "Benton",
      "county_fips": "05007",
      "primary_zip": "72758",
      "source": "population"
    },
    {
      "slug": "bentonville-ar",
      "city": "Bentonville",
      "state_abbr": "AR",
      "state": "Arkansas",
      "lat": 36.3579,
      "lon": -94.2286,
      "population": 47093,
      "county": "Benton",
      "county_fips": "05007",
      "primary_zip": "72712",
      "source": "population"
    },
    {
      "slug": "pine-bluff-ar",
      "city": "Pine Bluff",
      "state_abbr": "AR",
      "state": "Arkansas",
      "lat": 34.2119,
      "lon": -92.0174,
      "population": 43841,
      "county": "Jefferson",
      "county_fips": "05069",
      "primary_zip": "71602",
      "source": "population"
    },
    {
      "slug": "hot-springs-ar",
      "city": "Hot Springs",
      "state_abbr": "AR",
      "state": "Arkansas",
      "lat": 34.4915,
      "lon": -93.0488,
      "population": 36867,
      "county": "Garland",
      "county_fips": "05051",
      "primary_zip": "71901",
      "source": "population"
    },
    {
      "slug": "benton-ar",
      "city": "Benton",
      "state_abbr": "AR",
      "state": "Arkansas",
      "lat": 34.5769,
      "lon": -92.5716,
      "population": 35775,
      "county": "Saline",
      "county_fips": "05125",
      "primary_zip": "72019",
      "source": "population"
    },
    {
      "slug": "sherwood-ar",
      "city": "Sherwood",
      "state_abbr": "AR",
      "state": "Arkansas",
      "lat": 34.8509,
      "lon": -92.2029,
      "population": 30657,
      "county": "Pulaski",
      "county_fips": "05119",
      "primary_zip": "72120",
      "source": "population"
    },
    {
      "slug": "texarkana-ar",
      "city": "Texarkana",
      "state_abbr": "AR",
      "state": "Arkansas",
      "lat": 33.4365,
      "lon": -93.9961,
      "population": 30283,
      "county": "Miller",
      "county_fips": "05091",
      "primary_zip": "71854",
      "source": "population"
    },
    {
      "slug": "russellville-ar",
      "city": "Russellville",
      "state_abbr": "AR",
      "state": "Arkansas",
      "lat": 35.2761,
      "lon": -93.1385,
      "population": 29583,
      "county": "Pope",
      "county_fips": "05115",
      "primary_zip": "72802",
      "source": "population"
    },
    {
      "slug": "jacksonville-ar",
      "city": "Jacksonville",
      "state_abbr": "AR",
      "state": "Arkansas",
      "lat": 34.8805,
      "lon": -92.1303,
      "population": 28518,
      "county": "Pulaski",
      "county_fips": "05119",
      "primary_zip": "72099",
      "source": "population"
    },
    {
      "slug": "bella-vista-ar",
      "city": "Bella Vista",
      "state_abbr": "AR",
      "state": "Arkansas",
      "lat": 36.4667,
      "lon": -94.2708,
      "population": 28406,
      "county": "Benton",
      "county_fips": "05007",
      "primary_zip": "72714",
      "source": "population"
    },
    {
      "slug": "paragould-ar",
      "city": "Paragould",
      "state_abbr": "AR",
      "state": "Arkansas",
      "lat": 36.0561,
      "lon": -90.5149,
      "population": 28232,
      "county": "Greene",
      "county_fips": "05055",
      "primary_zip": "72450",
      "source": "population"
    },
    {
      "slug": "cabot-ar",
      "city": "Cabot",
      "state_abbr": "AR",
      "state": "Arkansas",
      "lat": 34.9765,
      "lon": -92.0268,
      "population": 25797,
      "county": "Lonoke",
      "county_fips": "05085",
      "primary_zip": "72023",
      "source": "population"
    },
    {
      "slug": "west-memphis-ar",
      "city": "West Memphis",
      "state_abbr": "AR",
      "state": "Arkansas",
      "lat": 35.1531,
      "lon": -90.1995,
      "population": 25284,
      "county": "Crittenden",
      "county_fips": "05035",
      "primary_zip": "72301",
      "source": "population"
    },
    {
      "slug": "searcy-ar",
      "city": "Searcy",
      "state_abbr": "AR",
      "state": "Arkansas",
      "lat": 35.2419,
      "lon": -91.7351,
      "population": 24318,
      "county": "White",
      "county_fips": "05145",
      "primary_zip": "72149",
      "source": "population"
    },
    {
      "slug": "van-buren-ar",
      "city": "Van Buren",
      "state_abbr": "AR",
      "state": "Arkansas",
      "lat": 35.4479,
      "lon": -94.3525,
      "population": 23367,
      "county": "Crawford",
      "county_fips": "05033",
      "primary_zip": "72956",
      "source": "population"
    },
    {
      "slug": "bryant-ar",
      "city": "Bryant",
      "state_abbr": "AR",
      "state": "Arkansas",
      "lat": 34.6144,
      "lon": -92.4903,
      "population": 20005,
      "county": "Saline",
      "county_fips": "05125",
      "primary_zip": "72002",
      "source": "population"
    },
    {
      "slug": "el-dorado-ar",
      "city": "El Dorado",
      "state_abbr": "AR",
      "state": "Arkansas",
      "lat": 33.2182,
      "lon": -92.6641,
      "population": 18339,
      "county": "Union",
      "county_fips": "05139",
      "primary_zip": "71730",
      "source": "population"
    },
    {
      "slug": "maumelle-ar",
      "city": "Maumelle",
      "state_abbr": "AR",
      "state": "Arkansas",
      "lat": 34.8525,
      "lon": -92.3994,
      "population": 18122,
      "county": "Pulaski",
      "county_fips": "05119",
      "primary_zip": "72113",
      "source": "population"
    },
    {
      "slug": "siloam-springs-ar",
      "city": "Siloam Springs",
      "state_abbr": "AR",
      "state": "Arkansas",
      "lat": 36.1838,
      "lon": -94.5319,
      "population": 16448,
      "county": "Benton",
      "county_fips": "05007",
      "primary_zip": "72761",
      "source": "population"
    },
    {
      "slug": "forrest-city-ar",
      "city": "Forrest City",
      "state_abbr": "AR",
      "state": "Arkansas",
      "lat": 35.0101,
      "lon": -90.7875,
      "population": 14480,
      "county": "St. Francis",
      "county_fips": "05123",
      "primary_zip": "72335",
      "source": "population"
    },
    {
      "slug": "blytheville-ar",
      "city": "Blytheville",
      "state_abbr": "AR",
      "state": "Arkansas",
      "lat": 35.9326,
      "lon": -89.9053,
      "population": 14375,
      "county": "Mississippi",
      "county_fips": "05093",
      "primary_zip": "72315",
      "source": "population"
    },
    {
      "slug": "harrison-ar",
      "city": "Harrison",
      "state_abbr": "AR",
      "state": "Arkansas",
      "lat": 36.2438,
      "lon": -93.1198,
      "population": 13170,
      "county": "Boone",
      "county_fips": "05009",
      "primary_zip": "72601",
      "source": "population"
    },
    {
      "slug": "centerton-ar",
      "city": "Centerton",
      "state_abbr": "AR",
      "state": "Arkansas",
      "lat": 36.3551,
      "lon": -94.296,
      "population": 12861,
      "county": "Benton",
      "county_fips": "05007",
      "primary_zip": "72712",
      "source": "population"
    },
    {
      "slug": "mountain-home-ar",
      "city": "Mountain Home",
      "state_abbr": "AR",
      "state": "Arkansas",
      "lat": 36.3345,
      "lon": -92.3845,
      "population": 12363,
      "county": "Baxter",
      "county_fips": "05005",
      "primary_zip": "72653",
      "source": "population"
    },
    {
      "slug": "marion-ar",
      "city": "Marion",
      "state_abbr": "AR",
      "state": "Arkansas",
      "lat": 35.2039,
      "lon": -90.2059,
      "population": 12362,
      "county": "Crittenden",
      "county_fips": "05035",
      "primary_zip": "72364",
      "source": "population"
    },
    {
      "slug": "magnolia-ar",
      "city": "Magnolia",
      "state_abbr": "AR",
      "state": "Arkansas",
      "lat": 33.2777,
      "lon": -93.2261,
      "population": 11601,
      "county": "Columbia",
      "county_fips": "05027",
      "primary_zip": "71753",
      "source": "population"
    },
    {
      "slug": "camden-ar",
      "city": "Camden",
      "state_abbr": "AR",
      "state": "Arkansas",
      "lat": 33.5672,
      "lon": -92.8466,
      "population": 11219,
      "county": "Ouachita",
      "county_fips": "05103",
      "primary_zip": "71701",
      "source": "population"
    },
    {
      "slug": "malvern-ar",
      "city": "Malvern",
      "state_abbr": "AR",
      "state": "Arkansas",
      "lat": 34.369,
      "lon": -92.8186,
      "population": 10941,
      "county": "Hot Spring",
      "county_fips": "05059",
      "primary_zip": "72104",
      "source": "population"
    },
    {
      "slug": "helena-west-helena-ar",
      "city": "Helena-West Helena",
      "state_abbr": "AR",
      "state": "Arkansas",
      "lat": 34.5311,
      "lon": -90.6202,
      "population": 10827,
      "county": "Phillips",
      "county_fips": "05107",
      "primary_zip": "72390",
      "source": "population"
    },
    {
      "slug": "arkadelphia-ar",
      "city": "Arkadelphia",
      "state_abbr": "AR",
      "state": "Arkansas",
      "lat": 34.1245,
      "lon": -93.0719,
      "population": 10793,
      "county": "Clark",
      "county_fips": "05019",
      "primary_zip": "71923",
      "source": "population"
    },
    {
      "slug": "batesville-ar",
      "city": "Batesville",
      "state_abbr": "AR",
      "state": "Arkansas",
      "lat": 35.7687,
      "lon": -91.6226,
      "population": 10740,
      "county": "Independence",
      "county_fips": "05063",
      "primary_zip": "72501",
      "source": "population"
    },
    {
      "slug": "hope-ar",
      "city": "Hope",
      "state_abbr": "AR",
      "state": "Arkansas",
      "lat": 33.6677,
      "lon": -93.5908,
      "population": 9892,
      "county": "Hempstead",
      "county_fips": "05057",
      "primary_zip": "71801",
      "source": "population"
    },
    {
      "slug": "monticello-ar",
      "city": "Monticello",
      "state_abbr": "AR",
      "state": "Arkansas",
      "lat": 33.6254,
      "lon": -91.7935,
      "population": 9753,
      "county": "Drew",
      "county_fips": "05043",
      "primary_zip": "71655",
      "source": "population"
    },
    {
      "slug": "clarksville-ar",
      "city": "Clarksville",
      "state_abbr": "AR",
      "state": "Arkansas",
      "lat": 35.4567,
      "lon": -93.4808,
      "population": 9524,
      "county": "Johnson",
      "county_fips": "05071",
      "primary_zip": "72830",
      "source": "population"
    },
    {
      "slug": "greenwood-ar",
      "city": "Greenwood",
      "state_abbr": "AR",
      "state": "Arkansas",
      "lat": 35.2135,
      "lon": -94.2411,
      "population": 9362,
      "county": "Sebastian",
      "county_fips": "05131",
      "primary_zip": "72936",
      "source": "population"
    },
    {
      "slug": "stuttgart-ar",
      "city": "Stuttgart",
      "state_abbr": "AR",
      "state": "Arkansas",
      "lat": 34.4958,
      "lon": -91.5483,
      "population": 8945,
      "county": "Arkansas",
      "county_fips": "05001",
      "primary_zip": "72160",
      "source": "population"
    },
    {
      "slug": "lowell-ar",
      "city": "Lowell",
      "state_abbr": "AR",
      "state": "Arkansas",
      "lat": 36.2563,
      "lon": -94.152,
      "population": 8922,
      "county": "Benton",
      "county_fips": "05007",
      "primary_zip": "72745",
      "source": "population"
    },
    {
      "slug": "beebe-ar",
      "city": "Beebe",
      "state_abbr": "AR",
      "state": "Arkansas",
      "lat": 35.0713,
      "lon": -91.9002,
      "population": 8120,
      "county": "White",
      "county_fips": "05145",
      "primary_zip": "72012",
      "source": "population"
    },
    {
      "slug": "wynne-ar",
      "city": "Wynne",
      "state_abbr": "AR",
      "state": "Arkansas",
      "lat": 35.2324,
      "lon": -90.7897,
      "population": 8078,
      "county": "Cross",
      "county_fips": "05037",
      "primary_zip": "72396",
      "source": "population"
    },
    {
      "slug": "newport-ar",
      "city": "Newport",
      "state_abbr": "AR",
      "state": "Arkansas",
      "lat": 35.6243,
      "lon": -91.2319,
      "population": 7756,
      "county": "Jackson",
      "county_fips": "05067",
      "primary_zip": "72112",
      "source": "population"
    },
    {
      "slug": "trumann-ar",
      "city": "Trumann",
      "state_abbr": "AR",
      "state": "Arkansas",
      "lat": 35.6763,
      "lon": -90.5229,
      "population": 7129,
      "county": "Poinsett",
      "county_fips": "05111",
      "primary_zip": "72472",
      "source": "population"
    },
    {
      "slug": "heber-springs-ar",
      "city": "Heber Springs",
      "state_abbr": "AR",
      "state": "Arkansas",
      "lat": 35.5003,
      "lon": -92.0339,
      "population": 7092,
      "county": "Cleburne",
      "county_fips": "05023",
      "primary_zip": "72543",
      "source": "population"
    },
    {
      "slug": "osceola-ar",
      "city": "Osceola",
      "state_abbr": "AR",
      "state": "Arkansas",
      "lat": 35.6947,
      "lon": -89.993,
      "population": 7086,
      "county": "Mississippi",
      "county_fips": "05093",
      "primary_zip": "72370",
      "source": "population"
    },
    {
      "slug": "phoenix-az",
      "city": "Phoenix",
      "state_abbr": "AZ",
      "state": "Arizona",
      "lat": 33.5722,
      "lon": -112.0891,
      "population": 1615017,
      "county": "Maricopa",
      "county_fips": "04013",
      "primary_zip": "85008",
      "source": "population"
    },
    {
      "slug": "tucson-az",
      "city": "Tucson",
      "state_abbr": "AZ",
      "state": "Arizona",
      "lat": 32.1558,
      "lon": -110.8777,
      "population": 530706,
      "county": "Pima",
      "county_fips": "04019",
      "primary_zip": "85705",
      "source": "population"
    },
    {
      "slug": "mesa-az",
      "city": "Mesa",
      "state_abbr": "AZ",
      "state": "Arizona",
      "lat": 33.4016,
      "lon": -111.718,
      "population": 484587,
      "county": "Maricopa",
      "county_fips": "04013",
      "primary_zip": "85208",
      "source": "population"
    },
    {
      "slug": "chandler-az",
      "city": "Chandler",
      "state_abbr": "AZ",
      "state": "Arizona",
      "lat": 33.2828,
      "lon": -111.8517,
      "population": 247477,
      "county": "Maricopa",
      "county_fips": "04013",
      "primary_zip": "85248",
      "source": "population"
    },
    {
      "slug": "scottsdale-az",
      "city": "Scottsdale",
      "state_abbr": "AZ",
      "state": "Arizona",
      "lat": 33.6872,
      "lon": -111.865,
      "population": 246645,
      "county": "Maricopa",
      "county_fips": "04013",
      "primary_zip": "85259",
      "source": "population"
    },
    {
      "slug": "glendale-az",
      "city": "Glendale",
      "state_abbr": "AZ",
      "state": "Arizona",
      "lat": 33.5797,
      "lon": -112.2246,
      "population": 245895,
      "county": "Maricopa",
      "county_fips": "04013",
      "primary_zip": "85301",
      "source": "population"
    },
    {
      "slug": "gilbert-az",
      "city": "Gilbert",
      "state_abbr": "AZ",
      "state": "Arizona",
      "lat": 33.3103,
      "lon": -111.7463,
      "population": 237133,
      "county": "Maricopa",
      "county_fips": "04013",
      "primary_zip": "85233",
      "source": "population"
    },
    {
      "slug": "tempe-az",
      "city": "Tempe",
      "state_abbr": "AZ",
      "state": "Arizona",
      "lat": 33.3881,
      "lon": -111.9318,
      "population": 182498,
      "county": "Maricopa",
      "county_fips": "04013",
      "primary_zip": "85281",
      "source": "population"
    },
    {
      "slug": "peoria-az",
      "city": "Peoria",
      "state_abbr": "AZ",
      "state": "Arizona",
      "lat": 33.7844,
      "lon": -112.2989,
      "population": 164173,
      "county": "Maricopa",
      "county_fips": "04013",
      "primary_zip": "85381",
      "source": "population"
    },
    {
      "slug": "surprise-az",
      "city": "Surprise",
      "state_abbr": "AZ",
      "state": "Arizona",
      "lat": 33.6802,
      "lon": -112.4525,
      "population": 132677,
      "county": "Maricopa",
      "county_fips": "04013",
      "primary_zip": "85361",
      "source": "population"
    },
    {
      "slug": "yuma-az",
      "city": "Yuma",
      "state_abbr": "AZ",
      "state": "Arizona",
      "lat": 32.599,
      "lon": -114.5489,
      "population": 94906,
      "county": "Yuma",
      "county_fips": "04027",
      "primary_zip": "85365",
      "source": "population"
    },
    {
      "slug": "avondale-az",
      "city": "Avondale",
      "state_abbr": "AZ",
      "state": "Arizona",
      "lat": 33.3858,
      "lon": -112.3236,
      "population": 82881,
      "county": "Maricopa",
      "county_fips": "04013",
      "primary_zip": "85323",
      "source": "population"
    },
    {
      "slug": "goodyear-az",
      "city": "Goodyear",
      "state_abbr": "AZ",
      "state": "Arizona",
      "lat": 33.2613,
      "lon": -112.3622,
      "population": 77258,
      "county": "Maricopa",
      "county_fips": "04013",
      "primary_zip": "85139",
      "source": "population"
    },
    {
      "slug": "flagstaff-az",
      "city": "Flagstaff",
      "state_abbr": "AZ",
      "state": "Arizona",
      "lat": 35.1867,
      "lon": -111.6175,
      "population": 71459,
      "county": "Coconino",
      "county_fips": "04005",
      "primary_zip": "86001",
      "source": "population"
    },
    {
      "slug": "buckeye-az",
      "city": "Buckeye",
      "state_abbr": "AZ",
      "state": "Arizona",
      "lat": 33.4318,
      "lon": -112.643,
      "population": 64629,
      "county": "Maricopa",
      "county_fips": "04013",
      "primary_zip": "85326",
      "source": "population"
    },
    {
      "slug": "casa-grande-az",
      "city": "Casa Grande",
      "state_abbr": "AZ",
      "state": "Arizona",
      "lat": 32.907,
      "lon": -111.7623,
      "population": 54534,
      "county": "Pinal",
      "county_fips": "04021",
      "primary_zip": "85194",
      "source": "population"
    },
    {
      "slug": "lake-havasu-city-az",
      "city": "Lake Havasu City",
      "state_abbr": "AZ",
      "state": "Arizona",
      "lat": 34.5006,
      "lon": -114.3115,
      "population": 53743,
      "county": "Mohave",
      "county_fips": "04015",
      "primary_zip": "86403",
      "source": "population"
    },
    {
      "slug": "maricopa-az",
      "city": "Maricopa",
      "state_abbr": "AZ",
      "state": "Arizona",
      "lat": 33.0447,
      "lon": -112.0164,
      "population": 46903,
      "county": "Pinal",
      "county_fips": "04021",
      "primary_zip": "85138",
      "source": "population"
    },
    {
      "slug": "oro-valley-az",
      "city": "Oro Valley",
      "state_abbr": "AZ",
      "state": "Arizona",
      "lat": 32.4226,
      "lon": -110.9767,
      "population": 43781,
      "county": "Pima",
      "county_fips": "04019",
      "primary_zip": "85755",
      "source": "population"
    },
    {
      "slug": "marana-az",
      "city": "Marana",
      "state_abbr": "AZ",
      "state": "Arizona",
      "lat": 32.4355,
      "lon": -111.1558,
      "population": 43474,
      "county": "Pima",
      "county_fips": "04019",
      "primary_zip": "85653",
      "source": "population"
    },
    {
      "slug": "sierra-vista-az",
      "city": "Sierra Vista",
      "state_abbr": "AZ",
      "state": "Arizona",
      "lat": 31.5631,
      "lon": -110.3153,
      "population": 43208,
      "county": "Cochise",
      "county_fips": "04003",
      "primary_zip": "85650",
      "source": "population"
    },
    {
      "slug": "prescott-valley-az",
      "city": "Prescott Valley",
      "state_abbr": "AZ",
      "state": "Arizona",
      "lat": 34.5983,
      "lon": -112.3178,
      "population": 43132,
      "county": "Yavapai",
      "county_fips": "04025",
      "primary_zip": "86327",
      "source": "population"
    },
    {
      "slug": "prescott-az",
      "city": "Prescott",
      "state_abbr": "AZ",
      "state": "Arizona",
      "lat": 34.5799,
      "lon": -112.4476,
      "population": 42513,
      "county": "Yavapai",
      "county_fips": "04025",
      "primary_zip": "86305",
      "source": "population"
    },
    {
      "slug": "bullhead-city-az",
      "city": "Bullhead City",
      "state_abbr": "AZ",
      "state": "Arizona",
      "lat": 35.1205,
      "lon": -114.546,
      "population": 39970,
      "county": "Mohave",
      "county_fips": "04015",
      "primary_zip": "86442",
      "source": "population"
    },
    {
      "slug": "apache-junction-az",
      "city": "Apache Junction",
      "state_abbr": "AZ",
      "state": "Arizona",
      "lat": 33.3982,
      "lon": -111.5349,
      "population": 39954,
      "county": "Pinal",
      "county_fips": "04021",
      "primary_zip": "85119",
      "source": "population"
    },
    {
      "slug": "queen-creek-az",
      "city": "Queen Creek",
      "state_abbr": "AZ",
      "state": "Arizona",
      "lat": 33.2392,
      "lon": -111.6397,
      "population": 35524,
      "county": "Maricopa",
      "county_fips": "04013",
      "primary_zip": "85142",
      "source": "population"
    },
    {
      "slug": "el-mirage-az",
      "city": "El Mirage",
      "state_abbr": "AZ",
      "state": "Arizona",
      "lat": 33.5906,
      "lon": -112.3271,
      "population": 35043,
      "county": "Maricopa",
      "county_fips": "04013",
      "primary_zip": "85335",
      "source": "population"
    },
    {
      "slug": "san-luis-az",
      "city": "San Luis",
      "state_abbr": "AZ",
      "state": "Arizona",
      "lat": 32.4922,
      "lon": -114.7105,
      "population": 32148,
      "county": "Yuma",
      "county_fips": "04027",
      "primary_zip": "85350",
      "source": "population"
    },
    {
      "slug": "kingman-az",
      "city": "Kingman",
      "state_abbr": "AZ",
      "state": "Arizona",
      "lat": 35.2168,
      "lon": -114.0167,
      "population": 29029,
      "county": "Mohave",
      "county_fips": "04015",
      "primary_zip": "86409",
      "source": "population"
    },
    {
      "slug": "sahuarita-az",
      "city": "Sahuarita",
      "state_abbr": "AZ",
      "state": "Arizona",
      "lat": 31.9328,
      "lon": -110.9654,
      "population": 28794,
      "county": "Pima",
      "county_fips": "04019",
      "primary_zip": "85629",
      "source": "population"
    },
    {
      "slug": "florence-az",
      "city": "Florence",
      "state_abbr": "AZ",
      "state": "Arizona",
      "lat": 33.0631,
      "lon": -111.4272,
      "population": 25779,
      "county": "Pinal",
      "county_fips": "04021",
      "primary_zip": "85132",
      "source": "population"
    },
    {
      "slug": "fountain-hills-az",
      "city": "Fountain Hills",
      "state_abbr": "AZ",
      "state": "Arizona",
      "lat": 33.6072,
      "lon": -111.7398,
      "population": 24482,
      "county": "Maricopa",
      "county_fips": "04013",
      "primary_zip": "85268",
      "source": "population"
    },
    {
      "slug": "nogales-az",
      "city": "Nogales",
      "state_abbr": "AZ",
      "state": "Arizona",
      "lat": 31.3624,
      "lon": -110.9336,
      "population": 20008,
      "county": "Santa Cruz",
      "county_fips": "04023",
      "primary_zip": "85621",
      "source": "population"
    },
    {
      "slug": "eloy-az",
      "city": "Eloy",
      "state_abbr": "AZ",
      "state": "Arizona",
      "lat": 32.7464,
      "lon": -111.5994,
      "population": 17442,
      "county": "Pinal",
      "county_fips": "04021",
      "primary_zip": "85131",
      "source": "population"
    },
    {
      "slug": "douglas-az",
      "city": "Douglas",
      "state_abbr": "AZ",
      "state": "Arizona",
      "lat": 31.3602,
      "lon": -109.5394,
      "population": 16604,
      "county": "Cochise",
      "county_fips": "04003",
      "primary_zip": "85608",
      "source": "population"
    },
    {
      "slug": "payson-az",
      "city": "Payson",
      "state_abbr": "AZ",
      "state": "Arizona",
      "lat": 34.2432,
      "lon": -111.3195,
      "population": 15476,
      "county": "Gila",
      "county_fips": "04007",
      "primary_zip": "85541",
      "source": "population"
    },
    {
      "slug": "somerton-az",
      "city": "Somerton",
      "state_abbr": "AZ",
      "state": "Arizona",
      "lat": 32.6009,
      "lon": -114.699,
      "population": 14970,
      "county": "Yuma",
      "county_fips": "04027",
      "primary_zip": "85350",
      "source": "population"
    },
    {
      "slug": "paradise-valley-az",
      "city": "Paradise Valley",
      "state_abbr": "AZ",
      "state": "Arizona",
      "lat": 33.5435,
      "lon": -111.9595,
      "population": 14355,
      "county": "Maricopa",
      "county_fips": "04013",
      "primary_zip": "85253",
      "source": "population"
    },
    {
      "slug": "coolidge-az",
      "city": "Coolidge",
      "state_abbr": "AZ",
      "state": "Arizona",
      "lat": 32.9595,
      "lon": -111.5285,
      "population": 12528,
      "county": "Pinal",
      "county_fips": "04021",
      "primary_zip": "85128",
      "source": "population"
    },
    {
      "slug": "cottonwood-az",
      "city": "Cottonwood",
      "state_abbr": "AZ",
      "state": "Arizona",
      "lat": 34.7194,
      "lon": -112.0014,
      "population": 11990,
      "county": "Yavapai",
      "county_fips": "04025",
      "primary_zip": "86326",
      "source": "population"
    },
    {
      "slug": "chino-valley-az",
      "city": "Chino Valley",
      "state_abbr": "AZ",
      "state": "Arizona",
      "lat": 34.7593,
      "lon": -112.4107,
      "population": 11250,
      "county": "Yavapai",
      "county_fips": "04025",
      "primary_zip": "86323",
      "source": "population"
    },
    {
      "slug": "camp-verde-az",
      "city": "Camp Verde",
      "state_abbr": "AZ",
      "state": "Arizona",
      "lat": 34.5699,
      "lon": -111.8573,
      "population": 11238,
      "county": "Yavapai",
      "county_fips": "04025",
      "primary_zip": "86322",
      "source": "population"
    },
    {
      "slug": "show-low-az",
      "city": "Show Low",
      "state_abbr": "AZ",
      "state": "Arizona",
      "lat": 34.2677,
      "lon": -110.0387,
      "population": 11096,
      "county": "Navajo",
      "county_fips": "04017",
      "primary_zip": "85901",
      "source": "population"
    },
    {
      "slug": "sedona-az",
      "city": "Sedona",
      "state_abbr": "AZ",
      "state": "Arizona",
      "lat": 34.8574,
      "lon": -111.7951,
      "population": 10397,
      "county": "Coconino",
      "county_fips": "04005",
      "primary_zip": "86336",
      "source": "population"
    },
    {
      "slug": "winslow-az",
      "city": "Winslow",
      "state_abbr": "AZ",
      "state": "Arizona",
      "lat": 35.0253,
      "lon": -110.7098,
      "population": 9754,
      "county": "Navajo",
      "county_fips": "04017",
      "primary_zip": "86047",
      "source": "population"
    },
    {
      "slug": "safford-az",
      "city": "Safford",
      "state_abbr": "AZ",
      "state": "Arizona",
      "lat": 32.8318,
      "lon": -109.7006,
      "population": 9604,
      "county": "Graham",
      "county_fips": "04009",
      "primary_zip": "85546",
      "source": "population"
    },
    {
      "slug": "page-az",
      "city": "Page",
      "state_abbr": "AZ",
      "state": "Arizona",
      "lat": 36.9425,
      "lon": -111.5071,
      "population": 7599,
      "county": "Coconino",
      "county_fips": "04005",
      "primary_zip": "86036",
      "source": "population"
    },
    {
      "slug": "globe-az",
      "city": "Globe",
      "state_abbr": "AZ",
      "state": "Arizona",
      "lat": 33.3869,
      "lon": -110.7515,
      "population": 7376,
      "county": "Gila",
      "county_fips": "04007",
      "primary_zip": "85501",
      "source": "population"
    },
    {
      "slug": "tolleson-az",
      "city": "Tolleson",
      "state_abbr": "AZ",
      "state": "Arizona",
      "lat": 33.4484,
      "lon": -112.2561,
      "population": 7178,
      "county": "Maricopa",
      "county_fips": "04013",
      "primary_zip": "85353",
      "source": "population"
    },
    {
      "slug": "wickenburg-az",
      "city": "Wickenburg",
      "state_abbr": "AZ",
      "state": "Arizona",
      "lat": 33.9823,
      "lon": -112.7667,
      "population": 7115,
      "county": "Maricopa",
      "county_fips": "04013",
      "primary_zip": "85390",
      "source": "population"
    },
    {
      "slug": "los-angeles-ca",
      "city": "Los Angeles",
      "state_abbr": "CA",
      "state": "California",
      "lat": 34.114,
      "lon": -118.4068,
      "population": 3976322,
      "county": "Los Angeles",
      "county_fips": "06037",
      "primary_zip": "90291",
      "source": "population"
    },
    {
      "slug": "san-diego-ca",
      "city": "San Diego",
      "state_abbr": "CA",
      "state": "California",
      "lat": 32.8312,
      "lon": -117.1225,
      "population": 1406630,
      "county": "San Diego",
      "county_fips": "06073",
      "primary_zip": "92109",
      "source": "population"
    },
    {
      "slug": "san-jose-ca",
      "city": "San Jose",
      "state_abbr": "CA",
      "state": "California",
      "lat": 37.302,
      "lon": -121.8488,
      "population": 1025350,
      "county": "Santa Clara",
      "county_fips": "06085",
      "primary_zip": "95118",
      "source": "population"
    },
    {
      "slug": "san-francisco-ca",
      "city": "San Francisco",
      "state_abbr": "CA",
      "state": "California",
      "lat": 37.7561,
      "lon": -122.4429,
      "population": 870887,
      "county": "San Francisco",
      "county_fips": "06075",
      "primary_zip": "94130",
      "source": "population"
    },
    {
      "slug": "fresno-ca",
      "city": "Fresno",
      "state_abbr": "CA",
      "state": "California",
      "lat": 36.7834,
      "lon": -119.7933,
      "population": 522053,
      "county": "Fresno",
      "county_fips": "06019",
      "primary_zip": "93721",
      "source": "population"
    },
    {
      "slug": "sacramento-ca",
      "city": "Sacramento",
      "state_abbr": "CA",
      "state": "California",
      "lat": 38.5666,
      "lon": -121.4683,
      "population": 495234,
      "county": "Sacramento",
      "county_fips": "06067",
      "primary_zip": "95821",
      "source": "population"
    },
    {
      "slug": "long-beach-ca",
      "city": "Long Beach",
      "state_abbr": "CA",
      "state": "California",
      "lat": 33.8059,
      "lon": -118.161,
      "population": 470130,
      "county": "Los Angeles",
      "county_fips": "06037",
      "primary_zip": "90822",
      "source": "population"
    },
    {
      "slug": "oakland-ca",
      "city": "Oakland",
      "state_abbr": "CA",
      "state": "California",
      "lat": 37.7903,
      "lon": -122.2165,
      "population": 420005,
      "county": "Alameda",
      "county_fips": "06001",
      "primary_zip": "94621",
      "source": "population"
    },
    {
      "slug": "bakersfield-ca",
      "city": "Bakersfield",
      "state_abbr": "CA",
      "state": "California",
      "lat": 35.3528,
      "lon": -119.0354,
      "population": 376380,
      "county": "Kern",
      "county_fips": "06029",
      "primary_zip": "93306",
      "source": "population"
    },
    {
      "slug": "anaheim-ca",
      "city": "Anaheim",
      "state_abbr": "CA",
      "state": "California",
      "lat": 33.839,
      "lon": -117.8572,
      "population": 351043,
      "county": "Orange",
      "county_fips": "06059",
      "primary_zip": "92808",
      "source": "population"
    },
    {
      "slug": "santa-ana-ca",
      "city": "Santa Ana",
      "state_abbr": "CA",
      "state": "California",
      "lat": 33.7366,
      "lon": -117.8819,
      "population": 334217,
      "county": "Orange",
      "county_fips": "06059",
      "primary_zip": "92705",
      "source": "population"
    },
    {
      "slug": "riverside-ca",
      "city": "Riverside",
      "state_abbr": "CA",
      "state": "California",
      "lat": 33.9382,
      "lon": -117.3949,
      "population": 324722,
      "county": "Riverside",
      "county_fips": "06065",
      "primary_zip": "92508",
      "source": "population"
    },
    {
      "slug": "stockton-ca",
      "city": "Stockton",
      "state_abbr": "CA",
      "state": "California",
      "lat": 37.9766,
      "lon": -121.3111,
      "population": 307072,
      "county": "San Joaquin",
      "county_fips": "06077",
      "primary_zip": "95212",
      "source": "population"
    },
    {
      "slug": "chula-vista-ca",
      "city": "Chula Vista",
      "state_abbr": "CA",
      "state": "California",
      "lat": 32.6281,
      "lon": -117.0144,
      "population": 267172,
      "county": "San Diego",
      "county_fips": "06073",
      "primary_zip": "91911",
      "source": "population"
    },
    {
      "slug": "irvine-ca",
      "city": "Irvine",
      "state_abbr": "CA",
      "state": "California",
      "lat": 33.6772,
      "lon": -117.7738,
      "population": 266122,
      "county": "Orange",
      "county_fips": "06059",
      "primary_zip": "92617",
      "source": "population"
    },
    {
      "slug": "fremont-ca",
      "city": "Fremont",
      "state_abbr": "CA",
      "state": "California",
      "lat": 37.5256,
      "lon": -121.987,
      "population": 233136,
      "county": "Alameda",
      "county_fips": "06001",
      "primary_zip": "94536",
      "source": "population"
    },
    {
      "slug": "san-bernardino-ca",
      "city": "San Bernardino",
      "state_abbr": "CA",
      "state": "California",
      "lat": 34.1412,
      "lon": -117.2936,
      "population": 216239,
      "county": "San Bernardino",
      "county_fips": "06071",
      "primary_zip": "92401",
      "source": "population"
    },
    {
      "slug": "modesto-ca",
      "city": "Modesto",
      "state_abbr": "CA",
      "state": "California",
      "lat": 37.6371,
      "lon": -121.003,
      "population": 212175,
      "county": "Stanislaus",
      "county_fips": "06099",
      "primary_zip": "95358",
      "source": "population"
    },
    {
      "slug": "fontana-ca",
      "city": "Fontana",
      "state_abbr": "CA",
      "state": "California",
      "lat": 34.0967,
      "lon": -117.4599,
      "population": 209665,
      "county": "San Bernardino",
      "county_fips": "06071",
      "primary_zip": "92335",
      "source": "population"
    },
    {
      "slug": "oxnard-ca",
      "city": "Oxnard",
      "state_abbr": "CA",
      "state": "California",
      "lat": 34.1961,
      "lon": -119.1821,
      "population": 207906,
      "county": "Ventura",
      "county_fips": "06111",
      "primary_zip": "93035",
      "source": "population"
    },
    {
      "slug": "moreno-valley-ca",
      "city": "Moreno Valley",
      "state_abbr": "CA",
      "state": "California",
      "lat": 33.9244,
      "lon": -117.2045,
      "population": 205499,
      "county": "Riverside",
      "county_fips": "06065",
      "primary_zip": "92553",
      "source": "population"
    },
    {
      "slug": "glendale-ca",
      "city": "Glendale",
      "state_abbr": "CA",
      "state": "California",
      "lat": 34.1818,
      "lon": -118.2468,
      "population": 200831,
      "county": "Los Angeles",
      "county_fips": "06037",
      "primary_zip": "91210",
      "source": "population"
    },
    {
      "slug": "huntington-beach-ca",
      "city": "Huntington Beach",
      "state_abbr": "CA",
      "state": "California",
      "lat": 33.696,
      "lon": -118.0023,
      "population": 200652,
      "county": "Orange",
      "county_fips": "06059",
      "primary_zip": "92649",
      "source": "population"
    },
    {
      "slug": "santa-clarita-ca",
      "city": "Santa Clarita",
      "state_abbr": "CA",
      "state": "California",
      "lat": 34.4119,
      "lon": -118.5036,
      "population": 181972,
      "county": "Los Angeles",
      "county_fips": "06037",
      "primary_zip": "91351",
      "source": "population"
    },
    {
      "slug": "rancho-cucamonga-ca",
      "city": "Rancho Cucamonga",
      "state_abbr": "CA",
      "state": "California",
      "lat": 34.1246,
      "lon": -117.5662,
      "population": 176534,
      "county": "San Bernardino",
      "county_fips": "06071",
      "primary_zip": "91737",
      "source": "population"
    },
    {
      "slug": "oceanside-ca",
      "city": "Oceanside",
      "state_abbr": "CA",
      "state": "California",
      "lat": 33.2247,
      "lon": -117.3083,
      "population": 175464,
      "county": "San Diego",
      "county_fips": "06073",
      "primary_zip": "92058",
      "source": "population"
    },
    {
      "slug": "santa-rosa-ca",
      "city": "Santa Rosa",
      "state_abbr": "CA",
      "state": "California",
      "lat": 38.4465,
      "lon": -122.7059,
      "population": 175155,
      "county": "Sonoma",
      "county_fips": "06097",
      "primary_zip": "95404",
      "source": "population"
    },
    {
      "slug": "garden-grove-ca",
      "city": "Garden Grove",
      "state_abbr": "CA",
      "state": "California",
      "lat": 33.7787,
      "lon": -117.9601,
      "population": 174858,
      "county": "Orange",
      "county_fips": "06059",
      "primary_zip": "92844",
      "source": "population"
    },
    {
      "slug": "ontario-ca",
      "city": "Ontario",
      "state_abbr": "CA",
      "state": "California",
      "lat": 34.0393,
      "lon": -117.6064,
      "population": 173212,
      "county": "San Bernardino",
      "county_fips": "06071",
      "primary_zip": "91762",
      "source": "population"
    },
    {
      "slug": "elk-grove-ca",
      "city": "Elk Grove",
      "state_abbr": "CA",
      "state": "California",
      "lat": 38.416,
      "lon": -121.3841,
      "population": 169743,
      "county": "Sacramento",
      "county_fips": "06067",
      "primary_zip": "95757",
      "source": "population"
    },
    {
      "slug": "corona-ca",
      "city": "Corona",
      "state_abbr": "CA",
      "state": "California",
      "lat": 33.8623,
      "lon": -117.5642,
      "population": 166785,
      "county": "Riverside",
      "county_fips": "06065",
      "primary_zip": "92882",
      "source": "population"
    },
    {
      "slug": "lancaster-ca",
      "city": "Lancaster",
      "state_abbr": "CA",
      "state": "California",
      "lat": 34.6934,
      "lon": -118.1753,
      "population": 160106,
      "county": "Los Angeles",
      "county_fips": "06037",
      "primary_zip": "93535",
      "source": "population"
    },
    {
      "slug": "hayward-ca",
      "city": "Hayward",
      "state_abbr": "CA",
      "state": "California",
      "lat": 37.6327,
      "lon": -122.0776,
      "population": 158937,
      "county": "Alameda",
      "county_fips": "06001",
      "primary_zip": "94541",
      "source": "population"
    },
    {
      "slug": "palmdale-ca",
      "city": "Palmdale",
      "state_abbr": "CA",
      "state": "California",
      "lat": 34.5945,
      "lon": -118.1058,
      "population": 157356,
      "county": "Los Angeles",
      "county_fips": "06037",
      "primary_zip": "93550",
      "source": "population"
    },
    {
      "slug": "salinas-ca",
      "city": "Salinas",
      "state_abbr": "CA",
      "state": "California",
      "lat": 36.6881,
      "lon": -121.6316,
      "population": 157218,
      "county": "Monterey",
      "county_fips": "06053",
      "primary_zip": "93901",
      "source": "population"
    },
    {
      "slug": "sunnyvale-ca",
      "city": "Sunnyvale",
      "state_abbr": "CA",
      "state": "California",
      "lat": 37.3846,
      "lon": -122.0261,
      "population": 152771,
      "county": "Santa Clara",
      "county_fips": "06085",
      "primary_zip": "95002",
      "source": "population"
    },
    {
      "slug": "pomona-ca",
      "city": "Pomona",
      "state_abbr": "CA",
      "state": "California",
      "lat": 34.0585,
      "lon": -117.7625,
      "population": 152494,
      "county": "Los Angeles",
      "county_fips": "06037",
      "primary_zip": "91766",
      "source": "population"
    },
    {
      "slug": "escondido-ca",
      "city": "Escondido",
      "state_abbr": "CA",
      "state": "California",
      "lat": 33.1349,
      "lon": -117.0721,
      "population": 151613,
      "county": "San Diego",
      "county_fips": "06073",
      "primary_zip": "92029",
      "source": "population"
    },
    {
      "slug": "torrance-ca",
      "city": "Torrance",
      "state_abbr": "CA",
      "state": "California",
      "lat": 33.8346,
      "lon": -118.3417,
      "population": 147195,
      "county": "Los Angeles",
      "county_fips": "06037",
      "primary_zip": "90277",
      "source": "population"
    },
    {
      "slug": "pasadena-ca",
      "city": "Pasadena",
      "state_abbr": "CA",
      "state": "California",
      "lat": 34.1598,
      "lon": -118.1389,
      "population": 142059,
      "county": "Los Angeles",
      "county_fips": "06037",
      "primary_zip": "91101",
      "source": "population"
    },
    {
      "slug": "fullerton-ca",
      "city": "Fullerton",
      "state_abbr": "CA",
      "state": "California",
      "lat": 33.8841,
      "lon": -117.9279,
      "population": 140721,
      "county": "Orange",
      "county_fips": "06059",
      "primary_zip": "92832",
      "source": "population"
    },
    {
      "slug": "orange-ca",
      "city": "Orange",
      "state_abbr": "CA",
      "state": "California",
      "lat": 33.8038,
      "lon": -117.8219,
      "population": 140504,
      "county": "Orange",
      "county_fips": "06059",
      "primary_zip": "92868",
      "source": "population"
    },
    {
      "slug": "roseville-ca",
      "city": "Roseville",
      "state_abbr": "CA",
      "state": "California",
      "lat": 38.7683,
      "lon": -121.3164,
      "population": 132671,
      "county": "Placer",
      "county_fips": "06061",
      "primary_zip": "95661",
      "source": "population"
    },
    {
      "slug": "visalia-ca",
      "city": "Visalia",
      "state_abbr": "CA",
      "state": "California",
      "lat": 36.3271,
      "lon": -119.3265,
      "population": 131074,
      "county": "Tulare",
      "county_fips": "06107",
      "primary_zip": "93277",
      "source": "population"
    },
    {
      "slug": "thousand-oaks-ca",
      "city": "Thousand Oaks",
      "state_abbr": "CA",
      "state": "California",
      "lat": 34.1914,
      "lon": -118.8755,
      "population": 128888,
      "county": "Ventura",
      "county_fips": "06111",
      "primary_zip": "91320",
      "source": "population"
    },
    {
      "slug": "concord-ca",
      "city": "Concord",
      "state_abbr": "CA",
      "state": "California",
      "lat": 37.9722,
      "lon": -122.0016,
      "population": 128726,
      "county": "Contra Costa",
      "county_fips": "06013",
      "primary_zip": "94518",
      "source": "population"
    },
    {
      "slug": "simi-valley-ca",
      "city": "Simi Valley",
      "state_abbr": "CA",
      "state": "California",
      "lat": 34.2663,
      "lon": -118.749,
      "population": 126327,
      "county": "Ventura",
      "county_fips": "06111",
      "primary_zip": "93065",
      "source": "population"
    },
    {
      "slug": "santa-clara-ca",
      "city": "Santa Clara",
      "state_abbr": "CA",
      "state": "California",
      "lat": 37.3646,
      "lon": -121.9679,
      "population": 125948,
      "county": "Santa Clara",
      "county_fips": "06085",
      "primary_zip": "95054",
      "source": "population"
    },
    {
      "slug": "victorville-ca",
      "city": "Victorville",
      "state_abbr": "CA",
      "state": "California",
      "lat": 34.5277,
      "lon": -117.3537,
      "population": 122265,
      "county": "San Bernardino",
      "county_fips": "06071",
      "primary_zip": "92395",
      "source": "population"
    },
    {
      "slug": "vallejo-ca",
      "city": "Vallejo",
      "state_abbr": "CA",
      "state": "California",
      "lat": 38.1134,
      "lon": -122.2359,
      "population": 121299,
      "county": "Solano",
      "county_fips": "06095",
      "primary_zip": "94592",
      "source": "population"
    },
    {
      "slug": "denver-co",
      "city": "Denver",
      "state_abbr": "CO",
      "state": "Colorado",
      "lat": 39.7621,
      "lon": -104.8759,
      "population": 693060,
      "county": "Denver",
      "county_fips": "08031",
      "primary_zip": "80264",
      "source": "population"
    },
    {
      "slug": "colorado-springs-co",
      "city": "Colorado Springs",
      "state_abbr": "CO",
      "state": "Colorado",
      "lat": 38.8673,
      "lon": -104.7605,
      "population": 465101,
      "county": "El Paso",
      "county_fips": "08041",
      "primary_zip": "80951",
      "source": "population"
    },
    {
      "slug": "aurora-co",
      "city": "Aurora",
      "state_abbr": "CO",
      "state": "Colorado",
      "lat": 39.7085,
      "lon": -104.7274,
      "population": 361710,
      "county": "Adams",
      "county_fips": "08001",
      "primary_zip": "80247",
      "source": "population"
    },
    {
      "slug": "fort-collins-co",
      "city": "Fort Collins",
      "state_abbr": "CO",
      "state": "Colorado",
      "lat": 40.5487,
      "lon": -105.0656,
      "population": 164207,
      "county": "Larimer",
      "county_fips": "08069",
      "primary_zip": "80521",
      "source": "population"
    },
    {
      "slug": "lakewood-co",
      "city": "Lakewood",
      "state_abbr": "CO",
      "state": "Colorado",
      "lat": 39.6977,
      "lon": -105.117,
      "population": 154393,
      "county": "Jefferson",
      "county_fips": "08059",
      "primary_zip": "80465",
      "source": "population"
    },
    {
      "slug": "thornton-co",
      "city": "Thornton",
      "state_abbr": "CO",
      "state": "Colorado",
      "lat": 39.9202,
      "lon": -104.9445,
      "population": 136703,
      "county": "Adams",
      "county_fips": "08001",
      "primary_zip": "80260",
      "source": "population"
    },
    {
      "slug": "arvada-co",
      "city": "Arvada",
      "state_abbr": "CO",
      "state": "Colorado",
      "lat": 39.8321,
      "lon": -105.1508,
      "population": 117453,
      "county": "Jefferson",
      "county_fips": "08059",
      "primary_zip": "80005",
      "source": "population"
    },
    {
      "slug": "westminster-co",
      "city": "Westminster",
      "state_abbr": "CO",
      "state": "Colorado",
      "lat": 39.8837,
      "lon": -105.0627,
      "population": 113875,
      "county": "Adams",
      "county_fips": "08001",
      "primary_zip": "80030",
      "source": "population"
    },
    {
      "slug": "pueblo-co",
      "city": "Pueblo",
      "state_abbr": "CO",
      "state": "Colorado",
      "lat": 38.2701,
      "lon": -104.613,
      "population": 110291,
      "county": "Pueblo",
      "county_fips": "08101",
      "primary_zip": "81004",
      "source": "population"
    },
    {
      "slug": "centennial-co",
      "city": "Centennial",
      "state_abbr": "CO",
      "state": "Colorado",
      "lat": 39.5927,
      "lon": -104.8674,
      "population": 109932,
      "county": "Arapahoe",
      "county_fips": "08005",
      "primary_zip": "80122",
      "source": "population"
    },
    {
      "slug": "boulder-co",
      "city": "Boulder",
      "state_abbr": "CO",
      "state": "Colorado",
      "lat": 40.0274,
      "lon": -105.2514,
      "population": 108090,
      "county": "Boulder",
      "county_fips": "08013",
      "primary_zip": "80310",
      "source": "population"
    },
    {
      "slug": "greeley-co",
      "city": "Greeley",
      "state_abbr": "CO",
      "state": "Colorado",
      "lat": 40.415,
      "lon": -104.7697,
      "population": 103990,
      "county": "Weld",
      "county_fips": "08123",
      "primary_zip": "80631",
      "source": "population"
    },
    {
      "slug": "longmont-co",
      "city": "Longmont",
      "state_abbr": "CO",
      "state": "Colorado",
      "lat": 40.1691,
      "lon": -105.0995,
      "population": 92858,
      "county": "Boulder",
      "county_fips": "08013",
      "primary_zip": "80501",
      "source": "population"
    },
    {
      "slug": "loveland-co",
      "city": "Loveland",
      "state_abbr": "CO",
      "state": "Colorado",
      "lat": 40.4168,
      "lon": -105.0622,
      "population": 76897,
      "county": "Larimer",
      "county_fips": "08069",
      "primary_zip": "80538",
      "source": "population"
    },
    {
      "slug": "broomfield-co",
      "city": "Broomfield",
      "state_abbr": "CO",
      "state": "Colorado",
      "lat": 39.9541,
      "lon": -105.0526,
      "population": 66529,
      "county": "Broomfield",
      "county_fips": "08014",
      "primary_zip": "80023",
      "source": "population"
    },
    {
      "slug": "grand-junction-co",
      "city": "Grand Junction",
      "state_abbr": "CO",
      "state": "Colorado",
      "lat": 39.0881,
      "lon": -108.5675,
      "population": 61881,
      "county": "Mesa",
      "county_fips": "08077",
      "primary_zip": "81505",
      "source": "population"
    },
    {
      "slug": "castle-rock-co",
      "city": "Castle Rock",
      "state_abbr": "CO",
      "state": "Colorado",
      "lat": 39.3761,
      "lon": -104.8536,
      "population": 57666,
      "county": "Douglas",
      "county_fips": "08035",
      "primary_zip": "80104",
      "source": "population"
    },
    {
      "slug": "commerce-city-co",
      "city": "Commerce City",
      "state_abbr": "CO",
      "state": "Colorado",
      "lat": 39.8638,
      "lon": -104.8434,
      "population": 54869,
      "county": "Adams",
      "county_fips": "08001",
      "primary_zip": "80640",
      "source": "population"
    },
    {
      "slug": "parker-co",
      "city": "Parker",
      "state_abbr": "CO",
      "state": "Colorado",
      "lat": 39.5075,
      "lon": -104.7746,
      "population": 51163,
      "county": "Douglas",
      "county_fips": "08035",
      "primary_zip": "80138",
      "source": "population"
    },
    {
      "slug": "littleton-co",
      "city": "Littleton",
      "state_abbr": "CO",
      "state": "Colorado",
      "lat": 39.5912,
      "lon": -105.0193,
      "population": 46333,
      "county": "Arapahoe",
      "county_fips": "08005",
      "primary_zip": "80128",
      "source": "population"
    },
    {
      "slug": "northglenn-co",
      "city": "Northglenn",
      "state_abbr": "CO",
      "state": "Colorado",
      "lat": 39.9107,
      "lon": -104.9783,
      "population": 38982,
      "county": "Adams",
      "county_fips": "08001",
      "primary_zip": "80260",
      "source": "population"
    },
    {
      "slug": "brighton-co",
      "city": "Brighton",
      "state_abbr": "CO",
      "state": "Colorado",
      "lat": 39.9719,
      "lon": -104.7958,
      "population": 38314,
      "county": "Adams",
      "county_fips": "08001",
      "primary_zip": "80603",
      "source": "population"
    },
    {
      "slug": "englewood-co",
      "city": "Englewood",
      "state_abbr": "CO",
      "state": "Colorado",
      "lat": 39.6469,
      "lon": -104.9942,
      "population": 34050,
      "county": "Arapahoe",
      "county_fips": "08005",
      "primary_zip": "80113",
      "source": "population"
    },
    {
      "slug": "wheat-ridge-co",
      "city": "Wheat Ridge",
      "state_abbr": "CO",
      "state": "Colorado",
      "lat": 39.7728,
      "lon": -105.103,
      "population": 31372,
      "county": "Jefferson",
      "county_fips": "08059",
      "primary_zip": "80033",
      "source": "population"
    },
    {
      "slug": "fountain-co",
      "city": "Fountain",
      "state_abbr": "CO",
      "state": "Colorado",
      "lat": 38.6863,
      "lon": -104.6744,
      "population": 28753,
      "county": "El Paso",
      "county_fips": "08041",
      "primary_zip": "80817",
      "source": "population"
    },
    {
      "slug": "lafayette-co",
      "city": "Lafayette",
      "state_abbr": "CO",
      "state": "Colorado",
      "lat": 39.9946,
      "lon": -105.0996,
      "population": 28261,
      "county": "Boulder",
      "county_fips": "08013",
      "primary_zip": "80026",
      "source": "population"
    },
    {
      "slug": "erie-co",
      "city": "Erie",
      "state_abbr": "CO",
      "state": "Colorado",
      "lat": 40.0384,
      "lon": -105.0409,
      "population": 22803,
      "county": "Boulder",
      "county_fips": "08013",
      "primary_zip": "80516",
      "source": "population"
    },
    {
      "slug": "windsor-co",
      "city": "Windsor",
      "state_abbr": "CO",
      "state": "Colorado",
      "lat": 40.4666,
      "lon": -104.9213,
      "population": 22776,
      "county": "Weld",
      "county_fips": "08123",
      "primary_zip": "80550",
      "source": "population"
    },
    {
      "slug": "evans-co",
      "city": "Evans",
      "state_abbr": "CO",
      "state": "Colorado",
      "lat": 40.3661,
      "lon": -104.7389,
      "population": 21615,
      "county": "Weld",
      "county_fips": "08123",
      "primary_zip": "80645",
      "source": "population"
    },
    {
      "slug": "louisville-co",
      "city": "Louisville",
      "state_abbr": "CO",
      "state": "Colorado",
      "lat": 39.9708,
      "lon": -105.1441,
      "population": 20801,
      "county": "Boulder",
      "county_fips": "08013",
      "primary_zip": "80027",
      "source": "population"
    },
    {
      "slug": "golden-co",
      "city": "Golden",
      "state_abbr": "CO",
      "state": "Colorado",
      "lat": 39.7406,
      "lon": -105.2122,
      "population": 20696,
      "county": "Jefferson",
      "county_fips": "08059",
      "primary_zip": "80401",
      "source": "population"
    },
    {
      "slug": "montrose-co",
      "city": "Montrose",
      "state_abbr": "CO",
      "state": "Colorado",
      "lat": 38.4689,
      "lon": -107.8591,
      "population": 19311,
      "county": "Montrose",
      "county_fips": "08085",
      "primary_zip": "81403",
      "source": "population"
    },
    {
      "slug": "durango-co",
      "city": "Durango",
      "state_abbr": "CO",
      "state": "Colorado",
      "lat": 37.2744,
      "lon": -107.8702,
      "population": 18503,
      "county": "La Plata",
      "county_fips": "08067",
      "primary_zip": "81303",
      "source": "population"
    },
    {
      "slug": "ca-on-city-co",
      "city": "Cañon City",
      "state_abbr": "CO",
      "state": "Colorado",
      "lat": 38.443,
      "lon": -105.2201,
      "population": 16679,
      "county": "Fremont",
      "county_fips": "08043",
      "primary_zip": "81212",
      "source": "population"
    },
    {
      "slug": "greenwood-village-co",
      "city": "Greenwood Village",
      "state_abbr": "CO",
      "state": "Colorado",
      "lat": 39.6152,
      "lon": -104.913,
      "population": 15749,
      "county": "Arapahoe",
      "county_fips": "08005",
      "primary_zip": "80121",
      "source": "population"
    },
    {
      "slug": "johnstown-co",
      "city": "Johnstown",
      "state_abbr": "CO",
      "state": "Colorado",
      "lat": 40.3491,
      "lon": -104.949,
      "population": 15389,
      "county": "Weld",
      "county_fips": "08123",
      "primary_zip": "80534",
      "source": "population"
    },
    {
      "slug": "sterling-co",
      "city": "Sterling",
      "state_abbr": "CO",
      "state": "Colorado",
      "lat": 40.6207,
      "lon": -103.1919,
      "population": 13988,
      "county": "Logan",
      "county_fips": "08075",
      "primary_zip": "80751",
      "source": "population"
    },
    {
      "slug": "lone-tree-co",
      "city": "Lone Tree",
      "state_abbr": "CO",
      "state": "Colorado",
      "lat": 39.5308,
      "lon": -104.871,
      "population": 13271,
      "county": "Douglas",
      "county_fips": "08035",
      "primary_zip": "80124",
      "source": "population"
    },
    {
      "slug": "superior-co",
      "city": "Superior",
      "state_abbr": "CO",
      "state": "Colorado",
      "lat": 39.9348,
      "lon": -105.1584,
      "population": 13155,
      "county": "Boulder",
      "county_fips": "08013",
      "primary_zip": "80027",
      "source": "population"
    },
    {
      "slug": "fruita-co",
      "city": "Fruita",
      "state_abbr": "CO",
      "state": "Colorado",
      "lat": 39.154,
      "lon": -108.7285,
      "population": 12924,
      "county": "Mesa",
      "county_fips": "08077",
      "primary_zip": "81521",
      "source": "population"
    },
    {
      "slug": "firestone-co",
      "city": "Firestone",
      "state_abbr": "CO",
      "state": "Colorado",
      "lat": 40.1505,
      "lon": -104.9479,
      "population": 12917,
      "county": "Weld",
      "county_fips": "08123",
      "primary_zip": "80520",
      "source": "population"
    },
    {
      "slug": "steamboat-springs-co",
      "city": "Steamboat Springs",
      "state_abbr": "CO",
      "state": "Colorado",
      "lat": 40.4774,
      "lon": -106.8233,
      "population": 12690,
      "county": "Routt",
      "county_fips": "08107",
      "primary_zip": "80487",
      "source": "population"
    },
    {
      "slug": "federal-heights-co",
      "city": "Federal Heights",
      "state_abbr": "CO",
      "state": "Colorado",
      "lat": 39.8651,
      "lon": -105.0154,
      "population": 12458,
      "county": "Adams",
      "county_fips": "08001",
      "primary_zip": "80260",
      "source": "population"
    },
    {
      "slug": "frederick-co",
      "city": "Frederick",
      "state_abbr": "CO",
      "state": "Colorado",
      "lat": 40.1096,
      "lon": -104.9677,
      "population": 12154,
      "county": "Weld",
      "county_fips": "08123",
      "primary_zip": "80504",
      "source": "population"
    },
    {
      "slug": "fort-morgan-co",
      "city": "Fort Morgan",
      "state_abbr": "CO",
      "state": "Colorado",
      "lat": 40.2561,
      "lon": -103.7907,
      "population": 11348,
      "county": "Morgan",
      "county_fips": "08087",
      "primary_zip": "80701",
      "source": "population"
    },
    {
      "slug": "castle-pines-co",
      "city": "Castle Pines",
      "state_abbr": "CO",
      "state": "Colorado",
      "lat": 39.4625,
      "lon": -104.8706,
      "population": 10284,
      "county": "Douglas",
      "county_fips": "08035",
      "primary_zip": "80108",
      "source": "population"
    },
    {
      "slug": "glenwood-springs-co",
      "city": "Glenwood Springs",
      "state_abbr": "CO",
      "state": "Colorado",
      "lat": 39.5459,
      "lon": -107.3348,
      "population": 9997,
      "county": "Garfield",
      "county_fips": "08045",
      "primary_zip": "81601",
      "source": "population"
    },
    {
      "slug": "alamosa-co",
      "city": "Alamosa",
      "state_abbr": "CO",
      "state": "Colorado",
      "lat": 37.4755,
      "lon": -105.877,
      "population": 9918,
      "county": "Alamosa",
      "county_fips": "08003",
      "primary_zip": "81101",
      "source": "population"
    },
    {
      "slug": "rifle-co",
      "city": "Rifle",
      "state_abbr": "CO",
      "state": "Colorado",
      "lat": 39.5361,
      "lon": -107.7719,
      "population": 9665,
      "county": "Garfield",
      "county_fips": "08045",
      "primary_zip": "81650",
      "source": "population"
    },
    {
      "slug": "cortez-co",
      "city": "Cortez",
      "state_abbr": "CO",
      "state": "Colorado",
      "lat": 37.3498,
      "lon": -108.5769,
      "population": 9007,
      "county": "Montezuma",
      "county_fips": "08083",
      "primary_zip": "81321",
      "source": "population"
    },
    {
      "slug": "bridgeport-ct",
      "city": "Bridgeport",
      "state_abbr": "CT",
      "state": "Connecticut",
      "lat": 41.1909,
      "lon": -73.1958,
      "population": 145936,
      "county": "Fairfield",
      "county_fips": "09001",
      "primary_zip": "06605",
      "source": "population"
    },
    {
      "slug": "new-haven-ct",
      "city": "New Haven",
      "state_abbr": "CT",
      "state": "Connecticut",
      "lat": 41.3112,
      "lon": -72.9245,
      "population": 129934,
      "county": "New Haven",
      "county_fips": "09009",
      "primary_zip": "06519",
      "source": "population"
    },
    {
      "slug": "stamford-ct",
      "city": "Stamford",
      "state_abbr": "CT",
      "state": "Connecticut",
      "lat": 41.1035,
      "lon": -73.5583,
      "population": 129113,
      "county": "Fairfield",
      "county_fips": "09001",
      "primary_zip": "06906",
      "source": "population"
    },
    {
      "slug": "hartford-ct",
      "city": "Hartford",
      "state_abbr": "CT",
      "state": "Connecticut",
      "lat": 41.7661,
      "lon": -72.6834,
      "population": 123243,
      "county": "Hartford",
      "county_fips": "09003",
      "primary_zip": "06106",
      "source": "population"
    },
    {
      "slug": "waterbury-ct",
      "city": "Waterbury",
      "state_abbr": "CT",
      "state": "Connecticut",
      "lat": 41.5583,
      "lon": -73.0361,
      "population": 108272,
      "county": "New Haven",
      "county_fips": "09009",
      "primary_zip": "06708",
      "source": "population"
    },
    {
      "slug": "norwalk-ct",
      "city": "Norwalk",
      "state_abbr": "CT",
      "state": "Connecticut",
      "lat": 41.1144,
      "lon": -73.4215,
      "population": 88438,
      "county": "Fairfield",
      "county_fips": "09001",
      "primary_zip": "06854",
      "source": "population"
    },
    {
      "slug": "danbury-ct",
      "city": "Danbury",
      "state_abbr": "CT",
      "state": "Connecticut",
      "lat": 41.4016,
      "lon": -73.471,
      "population": 84992,
      "county": "Fairfield",
      "county_fips": "09001",
      "primary_zip": "06810",
      "source": "population"
    },
    {
      "slug": "new-britain-ct",
      "city": "New Britain",
      "state_abbr": "CT",
      "state": "Connecticut",
      "lat": 41.6758,
      "lon": -72.7862,
      "population": 72558,
      "county": "Hartford",
      "county_fips": "09003",
      "primary_zip": "06052",
      "source": "population"
    },
    {
      "slug": "bristol-ct",
      "city": "Bristol",
      "state_abbr": "CT",
      "state": "Connecticut",
      "lat": 41.6812,
      "lon": -72.9407,
      "population": 60147,
      "county": "Hartford",
      "county_fips": "09003",
      "primary_zip": "06010",
      "source": "population"
    },
    {
      "slug": "meriden-ct",
      "city": "Meriden",
      "state_abbr": "CT",
      "state": "Connecticut",
      "lat": 41.5367,
      "lon": -72.7943,
      "population": 59622,
      "county": "New Haven",
      "county_fips": "09009",
      "primary_zip": "06451",
      "source": "population"
    },
    {
      "slug": "west-haven-ct",
      "city": "West Haven",
      "state_abbr": "CT",
      "state": "Connecticut",
      "lat": 41.2738,
      "lon": -72.9669,
      "population": 54516,
      "county": "New Haven",
      "county_fips": "09009",
      "primary_zip": "06516",
      "source": "population"
    },
    {
      "slug": "city-of-milford-balance-ct",
      "city": "City of Milford (balance)",
      "state_abbr": "CT",
      "state": "Connecticut",
      "lat": 41.2253,
      "lon": -73.0624,
      "population": 52536,
      "county": "New Haven",
      "county_fips": "09009",
      "primary_zip": "06461",
      "source": "population"
    },
    {
      "slug": "middletown-ct",
      "city": "Middletown",
      "state_abbr": "CT",
      "state": "Connecticut",
      "lat": 41.5476,
      "lon": -72.6549,
      "population": 46544,
      "county": "Middlesex",
      "county_fips": "09007",
      "primary_zip": "06457",
      "source": "population"
    },
    {
      "slug": "shelton-ct",
      "city": "Shelton",
      "state_abbr": "CT",
      "state": "Connecticut",
      "lat": 41.306,
      "lon": -73.1383,
      "population": 41334,
      "county": "Fairfield",
      "county_fips": "09001",
      "primary_zip": "06484",
      "source": "population"
    },
    {
      "slug": "norwich-ct",
      "city": "Norwich",
      "state_abbr": "CT",
      "state": "Connecticut",
      "lat": 41.5495,
      "lon": -72.0882,
      "population": 39556,
      "county": "New London",
      "county_fips": "09011",
      "primary_zip": "06380",
      "source": "population"
    },
    {
      "slug": "torrington-ct",
      "city": "Torrington",
      "state_abbr": "CT",
      "state": "Connecticut",
      "lat": 41.8349,
      "lon": -73.1282,
      "population": 34646,
      "county": "Litchfield",
      "county_fips": "09005",
      "primary_zip": "06790",
      "source": "population"
    },
    {
      "slug": "naugatuck-ct",
      "city": "Naugatuck",
      "state_abbr": "CT",
      "state": "Connecticut",
      "lat": 41.489,
      "lon": -73.0518,
      "population": 31392,
      "county": "New Haven",
      "county_fips": "09009",
      "primary_zip": "06770",
      "source": "population"
    },
    {
      "slug": "new-london-ct",
      "city": "New London",
      "state_abbr": "CT",
      "state": "Connecticut",
      "lat": 41.3502,
      "lon": -72.1023,
      "population": 26984,
      "county": "New London",
      "county_fips": "09011",
      "primary_zip": "06320",
      "source": "population"
    },
    {
      "slug": "ansonia-ct",
      "city": "Ansonia",
      "state_abbr": "CT",
      "state": "Connecticut",
      "lat": 41.3443,
      "lon": -73.0689,
      "population": 18732,
      "county": "New Haven",
      "county_fips": "09009",
      "primary_zip": "06401",
      "source": "population"
    },